name,link,cost for 2,cuisines,ratings,reviews,address,lat,lon
"lassi n cafe Restaurant, Margao",https://www.zomato.com/goa/lassi-n-cafe-margao,400,"Fast Food, Desserts, Beverages",3.6,44," Shop Number G-3, Premabai Enclave, Opposite The Goa State Coop Bank Ltd, Borda, Margao, Goa",15.3975936864,73.8093143329
"royal darbar Restaurant, Vasco",https://www.zomato.com/goa/royal-darbar-vasco,200,Fast Food,NEW,," Indira Niwas Building, Vasco Da Gama, Near Madina Masjid, Vasco Goa",15.6035098267,73.8250096142
"kokum kitchen taj fort aguada resort spa Restaurant, Candolim",https://www.zomato.com/goa/kokum-kitchen-taj-fort-aguada-resort-spa-candolim,"2,000","Seafood, Goan, Continental",3.9,68," Taj Fort Aguada Resort & Spa, Sinquerim Candolim Bardez, Candolim, Goa",15.2837449424,73.9720573649
"soul curry multi cuisine restaurant Restaurant, Mapusa",https://www.zomato.com/goa/soul-curry-multi-cuisine-restaurant-mapusa,800,"Seafood, Goan, North Indian, Chinese",4.2,227," Hotel Purshottam International, NH-66, Near Peddem Sports Complex, Peddem, Mapusa, Goa",15.4981735106,73.7684274092
"bazaar Restaurant, Candolim",https://www.zomato.com/goa/the-bazaar-candolim,800,"North Indian, Continental, Goan",3.3,39," Opposite Football Ground, Candolim, Goa",15.2917115506,73.9635758847
"raddish bar restaurant Restaurant, Baga",https://www.zomato.com/goa/raddish-bar-restaurant-baga,"1,100","Chinese, Continental, Goan, North Indian, Russian",3.9,137," 552, Opposite Royal Goan Beach, Arpora Road, Bardez, Baga, Goa",15.3912725947,73.8097384572
"damodar purohit sweets fast food  Restaurant, Margao",https://www.zomato.com/goa/damodar-purohit-sweets-fast-food-margao,150,Mithai,NEW,," Shop 20 & 21, Lake Plaza Building, State Highway 18, Fatorda, Margao, Goa",15.5687371289,73.7535773590
"cafe ancient rock Restaurant, Panaji",https://www.zomato.com/goa/cafe-ancient-rock-panaji,500,"North Indian, Chinese, Goan, Continental, Mughlai",2.9,5," 1/122/4 1/122/5 & 1/122/6 Coelho Pereira Building, Ground Floor, MG Road Panaji, Goa",15.4998063764,73.8320142031
"purple martini Restaurant, Anjuna",https://www.zomato.com/goa/purple-martini-anjuna,"1,500","Continental, Seafood, Italian, Mediterranean, North Indian",4.9,3777," Anjuna Beach, Anjuna, Goa",15.2796015914,73.9383939654
"krishna hotel Restaurant, Vasco",https://www.zomato.com/goa/krishna-hotel-vasco,100,"South Indian, Street Food",NEW,," Near Baina, Vasco, Goa",15.5209726936,73.7675258517
"xanti bakery Restaurant, Calangute",https://www.zomato.com/goa/xanti-bakery-calangute,200,"Bakery, Desserts",-,," Ground Floor, Vila Nova Residency, Beach Road, Calangute",15.3953969227,74.0020340681
"naughty prawn bar bistro Restaurant, Calangute",https://www.zomato.com/goa/naughty-prawn-bar-bistro-calangute,900,"Continental, North Indian, Goan",-,," Calangute-Baga Road, Near Sao Joe Baptista Chapel, Umta Vaddo, Calangute, Goa",15.5472275135,73.7600706518
"jocarol restaurant bar Restaurant, Cavelossim",https://www.zomato.com/goa/jocarol-restaurant-bar-cavelossim,850,"Goan, Seafood",3.2,5," Ferry Road, Asolna, Goa",15.0069578381,74.0275941789
"sher e punjab Restaurant, Panaji",https://www.zomato.com/goa/sher-e-punjab-panaji,"1,300","North Indian, Mughlai, Chinese, Desserts, Beverages",3.9,302," 12/84, Kuldip Plaza, 18th June Road, Panaji, Goa",15.2842303925,73.9741300419
"nesh garden pub Restaurant, Benaulim",https://www.zomato.com/goa/nesh-garden-pub-benaulim,600,"Chinese, North Indian, Goan",-,," Near Petrol Pump, Ascona, Diuler, Benaulim, Goa",15.2537800506,73.9434666932
"goan spice Restaurant, Anjuna",https://www.zomato.com/goa/goan-spice-1-anjuna,450,"Goan, Chinese, Continental",3.9,66," Guamwadi, Anjuna Siolim Road, Anjuna, Anjuna, Goa",15.5578335416,73.7556859106
"tyson place china town Restaurant, Palolem",https://www.zomato.com/goa/tyson-place-china-town-palolem,800,"Goan, Continental, Chinese",-,," Ourem Road, Mohanbagh, Canacona, Palolem, Goa",15.1815930738,73.9658738673
"zaiqa take away restaurant afc grills  Restaurant, Mapusa",https://www.zomato.com/goa/zaiqa-take-away-restaurant-afc-grills-mapusa,300,"Fast Food, Chinese",2.9,13," House 7/78/4, Rajwado Angod, Mapusa, Bardez, Mapusa, Goa",15.5906727137,73.8122205064
"suraj sweets  Restaurant, Margao",https://www.zomato.com/goa/suraj-sweets-margao,200,Mithai,NEW,," Shop 8, Ground Floor, St. Joaquim Road, Near Old Sarve Offce, Borda, Margao, Goa",15.5885661647,73.7602369487
"delta residency Restaurant, Calangute",https://www.zomato.com/goa/delta-residency-calangute,750,"North Indian, Chinese",-,," 1/201 B, Near Anthony Chapel, Gauravaddo, Calangute, Goa",15.5909097515,73.8148095086
"ranchikood Restaurant, Panaji",https://www.zomato.com/goa/ranchikood-panaji,200,Goan,-,," H 10/81/A5, BS 2, Mohidin Tower, Near EDC House, D.B Road, Tiswadi, Panaji, Goa",15.2594050202,73.9307892323
"hotel vilena Restaurant, Mapusa",https://www.zomato.com/goa/hotel-vilena-mapusa,800,Goan,-,," Flat BSF 4, Chandranath Apartments, 2nd Floor, Opposite Police Station, Bardez, North Goa, Mapusa, Goa",15.5361567518,73.7629768252
"viva goa Restaurant, Candolim",https://www.zomato.com/goa/viva-goa-candolim,450,"Goan, Seafood, North Indian, Chinese",3.7,29," Maria Apartments, Anawaddo, Candolim, Goa",15.5248075782,73.7662866712
"fruitilicious Restaurant, Panaji",https://www.zomato.com/goa/fruitilicious-panaji,300,"Desserts, Beverages",3.7,22," Kamat Towers, Patto, Panjim, Goa",15.4979198886,73.8262521476
"bharvis cuisine Restaurant, Ponda",https://www.zomato.com/goa/bharvis-cuisine-2-ponda,700,"North Indian, Goan, Mughlai",3.4,19," Shop 3 & 4, Hill View Motel Bulding Tisk, Ponda, Goa",15.4953368035,73.8245697320
"karnis palace Restaurant, Baga",https://www.zomato.com/goa/karnis-palace-1-baga,550,"South Indian, North Indian, Fast Food, Chinese",2.4,14," Saunta Waddo, Bardez, Baga, Goa",15.6483562323,73.7172602490
"beach house taj holiday village resort spa Restaurant, Candolim",https://www.zomato.com/goa/beach-house-taj-holiday-village-resort-spa-candolim,"3,000",Goan,3.9,49," Taj Holiday Village Resort & Spa, Bardez, Candolim, Goa",15.5831396750,73.7374304608
"molus classic Restaurant, Palolem",https://www.zomato.com/goa/molus-classic-palolem,"1,000","Goan, Chinese",3.7,21," Agonda Road, Near Fern Gardenia Resort ,Devabag,, Canacona, Palolem, Goa",15.4939426673,73.8357699662
"plyazh Restaurant, Ashwem",https://www.zomato.com/goa/plyazh-ashwem,400,"North Indian, Continental, Goan",-,," OYO Townhouse 031 Ashwem Vaddo, Ashwem Beach Road, Mandrem, Ashwem Beach, Goa",15.3901399176,73.8102118671
"cool n spice Restaurant, Ponda",https://www.zomato.com/goa/cool-n-spice-ponda,600,"Chinese, North Indian, Goan",3.6,73," First Floor, Menino Trade Centre, Opposite Canara Bank, Ponda, Goa",15.0369220697,73.9898601919
"no 23 royan corner bar restaurant Restaurant, Benaulim",https://www.zomato.com/goa/no-23-royan-corner-bar-restaurant-benaulim,700,"Seafood, North Indian, Beverages",-,," Colva Road, Maria Hall, Besides Benaulim Panchayat, Benaulim, Goa",15.5001094277,73.7713443115
"chandrabhan milk dairy restuarant  Restaurant, Vasco",https://www.zomato.com/goa/chandrabhan-milk-dairy-restuarant-vasco,150,"Mithai, Street Food",NEW,," Church Road, Baina, Goa - 403802, Opposite Sairaj Complex, Sasmollem Baina, Vasco, Goa",15.2756703291,73.9146322757
"guru bar Restaurant, Anjuna",https://www.zomato.com/goa/guru-bar-anjuna,800,"Goan, North Indian, Continental, Italian",4.1,154," Anjuna Beach Road, Anjuna, Goa",15.5520121802,73.7529513985
"bongo Restaurant, Baga",https://www.zomato.com/goa/the-bongo-baga,600,Goan,3.2,5," Baga Beach, Baga, Goa",15.5348420331,73.7638907880
"south indian dosa idli Restaurant, Colva",https://www.zomato.com/goa/south-indian-dosa-idli-colva,300,South Indian,NEW,," Near Colva Beach, Colva, Goa",15.4879886467,73.8158619404
"sonic Restaurant, Anjuna",https://www.zomato.com/goa/sonic-anjuna,"1,000","Continental, Chinese, Goan, North Indian",2.6,35," Anjuna Beach, Anjuna, Goa",15.5086841721,73.7654387578
"sonar bangla Restaurant, Penha de Franca",https://www.zomato.com/goa/sonar-bangla-penha-de-franca,500,"Bengali, North Indian",3.5,14," Opposite A J Super Market, Chogam Road Sangolda, Penha de Franca, Goa",15.3107680215,73.9184168726
"orchid holiday homes Restaurant, Calangute",https://www.zomato.com/goa/orchid-holiday-homes-calangute,400,North Indian,-,," 1/271 C, Gaura Vaddo, Calangute Road, Calangute, Goa",15.4019800329,74.0064245090
"udupi Restaurant, Panaji",https://www.zomato.com/goa/udupi-panaji,150,"Seafood, Goan",-,," Mahatama Gandhi Road, Near Head Post Office, Panaji, Goa",15.4994965400,73.8319310546
"menino Restaurant, Benaulim",https://www.zomato.com/goa/menino-benaulim,650,"Seafood, Goan, Chinese, North Indian",-,," Mazilvado, Salcete, Benaulim, Goa",15.5188030820,73.8319535181
"trellas Restaurant, Calangute",https://www.zomato.com/goa/trellas-1-calangute,600,"Goan, Chinese, North Indian",3.1,4," Near Old Newton Supermarket, Aguada Siolim Road, Calangute, Goa",15.2801746989,73.9413091913
"shree balaji Restaurant, Colva",https://www.zomato.com/goa/shree-balaji-colva,500,"North Indian, Chinese, Goan, South Indian",3.4,8," Colva Beach Road, Colva, Goa",15.5804888684,73.7381204590
"hyderabadi dum biryani Restaurant, Panaji",https://www.zomato.com/goa/hyderabadi-dum-biryani-panaji,450,"Biryani, Chinese, North Indian",2.7,16," Taleigao Road, Panaji, Goa",15.4997798837,73.8227481768
"kurry n frryy Restaurant, Penha de Franca",https://www.zomato.com/goa/kurry-n-frryy-penha-de-franca,300,Chinese,-,," House 991/1 G1, 1st Floor, Ward 7, Alto Bestim, Penha de Franca, Goa",15.5345051149,73.7643977255
"artisan backerei Restaurant, Calangute",https://www.zomato.com/goa/artisan-backerei-1-calangute,500,"Bakery, Desserts, Fast Food",4.0,48," Shop 16, Kamat Holiday Homes, Gaura Vaddo, Calangute, Goa",15.5461289593,73.8003708422
"uday ahar graha Restaurant, Panaji",https://www.zomato.com/goa/uday-ahar-graha-panaji,600,"North Indian, Seafood, Goan",3.3,7," Opposite Eldorado Plaza, Panaji Market, Panaji, Goa",15.2811669604,73.9456996322
"mayas shack Restaurant, Candolim",https://www.zomato.com/goa/mayas-shack-candolim,"1,000","North Indian, Chinese, Goan",-,," Behind Whispering Palms Beach Resort, Candolim, Goa",15.5156122642,73.8190644979
"margao khana khazana Restaurant, Colva",https://www.zomato.com/goa/the-margao-khana-khazana-colva,300,"Goan, North Indian, Chinese, Maharashtrian",-,," Reliance Park, Colva - Margao Road Petrol Pump, Seraulim, Colva, Goa",15.4781199355,73.8222455978
"viva goa Restaurant, Penha de Franca",https://www.zomato.com/goa/viva-goa-penha-de-franca,500,"Chinese, Goan, North Indian, Seafood",3.5,30," Volant Betim, Near Holiday Village, Bardez, Penha de Franca, Goa",15.3880274453,73.8630728424
"black market Restaurant, Panaji",https://www.zomato.com/goa/black-market-1-panaji,"1,800","Continental, Seafood, European, German",4.5,141," Villa Braganza Pereira Campal, Near Fab India, Panaji, Goa",15.4988830043,73.8328741863
"ashok Restaurant, Panaji",https://www.zomato.com/goa/ashok-panaji,300,Goan,3.4,5," Doctor Dada Vaidya Road, Patto, Near Head Post Office, Panaji, Goa",15.4978882262,73.8244671375
"red chillies Restaurant, Vasco",https://www.zomato.com/goa/red-chillies-vasco,500,"Chinese, North Indian",-,," MES Junction, Zuarinagar Vidhyanagar, Vasco, Goa",15.3983193632,73.8111439347
"artjuna Restaurant, Anjuna",https://www.zomato.com/goa/artjuna-anjuna,800,"Cafe, Mediterranean, Healthy Food, Lebanese",4.4,835," Monteiro Vaddo, Near Anjuna Flea Market, Anjuna, Goa",15.5822228124,73.7376557663
"sheetal udupi pure veg restaurant Restaurant, Panaji",https://www.zomato.com/goa/sheetal-udupi-pure-veg-restaurant-panaji,600,"South Indian, North Indian, Chinese",3.5,29," Gautam Building, MG Road, Panaji, Goa",15.5617862759,73.7492747605
"shankar sweets  Restaurant, Vasco",https://www.zomato.com/goa/shankar-sweets-vasco,100,Mithai,NEW,," # 01, F L Gomes Road, Vasco Da Gama, Near Old City Bus Stand, Vasco, Goa",15.2734574052,73.9272349700
"sufikhana Restaurant, Ponda",https://www.zomato.com/goa/sufikhana-ponda,250,Mughlai,3.3,8," House 1/121/35/4, Shop GS 4, Sadashiv Towers Upper Bazar, Ponda, Goa",15.4030525241,74.0090550855
"souza coffee Restaurant, Colva",https://www.zomato.com/goa/souza-coffee-colva,300,Cafe,3.9,42," Near Colva Police Station, Colva, Goa",15.6189025173,73.7352535129
"sea pearl Restaurant, Candolim",https://www.zomato.com/goa/sea-pearl-candolim,700,"North Indian, Chinese, Continental, Seafood",-,," 946 A, Escrivao Vaddo, Dr. Monteiro Road, Opposite Lawande's Supermarket / Rock 'n' Raaga, Arpora, Candolim Beach Road, Bardez, Candolim, Goa",15.5479216572,73.7565495819
"sky cafe Restaurant, Vasco",https://www.zomato.com/goa/sky-cafe-vasco,300,"Cafe, Desserts, Beverages",-,," Vedatmana Boa Ventura, Near Goa International Airport, Mormugao, Sancoale, Vasco, Goa",15.5939694444,73.8751750000
"bao Restaurant, Moira",https://www.zomato.com/goa/bao-moira,400,"Chinese, North Indian, Goan, Seafood",3.0,6," Near Cabel Stayed Bridge, Bardez, Moira, Goa",15.5436200000,73.7655330000
"honest restaurant Restaurant, Bardez",https://www.zomato.com/goa/honest-restaurant-bardez,500,"Chinese, Gujarati",-,," 2/161, Naikka Vaddo, Opposite Calangute Village Panchayat Office, Calangute, Bardez, Goa",15.3885478881,73.8584389910
"marianna Restaurant, Morjim",https://www.zomato.com/goa/marianna-morjim,"1,000","North Indian, Goan, Seafood, Chinese",-,," La Vaiencia Beach Resort Tembwada, Morjim Beach, Morjim, Goa",15.4888319387,73.8117534667
"johnnys hotel Restaurant, Calangute",https://www.zomato.com/goa/johnnys-hotel-calangute,400,"Goan, Chinese, North Indian, Arabian",-,," House 6/256A, Khobravaddo, Calangute, Bardez, Calangute, Goa",15.4976578660,73.8282198831
"star fast food Restaurant, Vasco",https://www.zomato.com/goa/star-fast-food-vasco,250,Chinese,3.7,69," Shop 16, Near Ricksha Stand, Vasco, Goa",15.6493835359,73.7169357017
"shiva ashvem Restaurant, Ashwem",https://www.zomato.com/goa/shiva-ashvem-ashwem,700,"North Indian, Chinese, Fast Food",-,," Ashwem Beach, Ashwem, Goa",15.5013067665,73.9149159193
"menino regency Restaurant, Panaji",https://www.zomato.com/goa/the-menino-regency-panaji,500,Asian,-,," Doctor Dada Vaidya Road, Near Jama Masjid, Panaji, Goa",15.5808160227,73.7477831170
"amparo Restaurant, Old Goa",https://www.zomato.com/goa/amparo-old-goa,350,"Seafood, Goan",-,," Carl Centre, Opposite Old Goa Police Station, Old Goa, Goa",0.0000000000,0.0000000000
"tinge coastal cuisines Restaurant, Panaji",https://www.zomato.com/goa/tinge-coastal-cuisines-panaji,"1,100","Seafood, Malwani, Goan, Kerala, Bengali",4.1,107," Ground Floor, Hotel Grande Delmon, Caetano De Albuquerque Road, Panjim, Goa",15.2786911493,73.9639540762
"mog art cafe Restaurant, Baga",https://www.zomato.com/goa/mog-art-cafe-baga,600,Cafe,3.1,6," 79, Pilerne Industrial Estate, Pilerne, Bardez, Baga, Goa",15.5390077568,73.7638485432
"cinnamon restaurant Restaurant, Margao",https://www.zomato.com/goa/cinnamon-restaurant-margao,500,Goan,2.5,63," Government Rest House, Monte Hill, Margao, Goa",15.5443953571,73.7615089864
"hotel abhiman Restaurant, Ponda",https://www.zomato.com/goa/hotel-abhiman-ponda,500,"North Indian, Chinese, Mughlai, Maharashtrian",2.7,22," Opposite HDFC Bank, Tisk, Ponda, Goa",15.3972959803,73.8114919513
"shimon falafel Restaurant, Arambol",https://www.zomato.com/goa/shimon-falafel-arambol,500,"Middle Eastern, Israeli",3.4,15," Khalcha Wadoo, Arambol, Goa",15.3927621334,73.8178554922
"sweet dreams Restaurant, Margao",https://www.zomato.com/goa/sweet-dreams-margao,200,"Desserts, Fast Food",3.5,24," Miguel Loyala Fartado Road, Opposite City Bus Stand, Margao, Goa",15.3948706787,74.0022144467
"kuttikar bar restaurant Restaurant, Old Goa",https://www.zomato.com/goa/kuttikar-bar-and-restaurant-old-goa,800,Seafood,3.1,10," Near St. Anthony's Chapel, Old Goa, Goa",15.4983166372,73.8236185536
"coco garden bar restaurant Restaurant, Calangute",https://www.zomato.com/goa/coco-garden-bar-restaurant-calangute,800,"Chinese, Continental, Goan",-,," Naika Waddo, Calangute, Goa",15.6919665689,73.7023589015
"why not prajyots Restaurant, Calangute",https://www.zomato.com/goa/why-not-prajyots-calangute,650,"North Indian, Chinese, Seafood, Goan",3.1,7," Opposite Falcon's Resort, Calangute, Goa",15.5175440000,73.7651070000
"chy novotel goa resort spa Restaurant, Candolim",https://www.zomato.com/goa/chy-novotel-goa-resort-spa-candolim,800,"Desserts, Bakery",3.7,30," Novotel Goa Resorts & Spa, Pinto Waddo, Off Candolim Road, Candolim, Goa",0.0000000000,0.0000000000
"havmor icecream parlour sanskrutik  Restaurant, Vasco",https://www.zomato.com/goa/havmor-icecream-parlour-sanskrutik-vasco,300,"Ice Cream, Biryani, Konkan",NEW,," Shop 03, Anas Residence, Opposite Government School, Vasco, Goa",15.3867770844,73.8455717638
"diva Restaurant, Calangute",https://www.zomato.com/goa/diva-calangute,"2,000",Italian,3.8,28," Andores Resort and Spa, Tivai Vaddo, Calangute",15.4978039008,73.8913399726
"blu shack Restaurant, Moira",https://www.zomato.com/goa/blu-shack-moira,"1,000","North Indian, Italian, Mexican, Continental",-,," Amor Beach Resort, Candolim Beach Road, Bardez, Moira, Goa",15.6791065973,73.7061847374
"cornerstone grill Restaurant, Majorda",https://www.zomato.com/goa/the-cornerstone-grill-majorda,"1,100","Continental, Goan, Seafood",3.6,27," Utorda, Majorda, Goa",15.0120838611,74.0219270065
"appetite Restaurant, Panaji",https://www.zomato.com/goa/appetite-2-panaji,250,"South Indian, Fast Food, Street Food",3.5,20," Patto Plaza, Beside Gera Imperium 1, Panaji, Goa",15.5896548040,73.8110108301
"beans n kreams Restaurant, Vasco",https://www.zomato.com/goa/beans-n-kreams-vasco,150,Fast Food,-,," Shop 20, Umiya Quarto Airport Road, Dabolim, Vasco, Goa",15.4514413971,73.8520623744
"ambrosia Restaurant, Panaji",https://www.zomato.com/goa/ambrosia-panaji,"1,200","Goan, North Indian",-,," H-9/190/A, Next To Yashoda Building, Street Inez, Panaji, Goa",15.2732002750,73.9567406103
"bay view lounge grand hyatt Restaurant, Bambolim",https://www.zomato.com/goa/bay-view-lounge-grand-hyatt-bambolim,"2,000",Finger Food,3.2,5," Grand Hyatt Goa, P.O. Goa University, Bambolim, Goa",15.6938896847,73.6985384300
"blue pyramid Restaurant, Arambol",https://www.zomato.com/goa/blue-pyramid-arambol,650,"Russian, North Indian, Chinese",-,," Arambol Road, Arambol, Goa",15.3720107495,73.8913694769
"om ganesh Restaurant, Arambol",https://www.zomato.com/goa/om-ganesh-arambol,800,"Continental, Israeli, North Indian, Chinese, Seafood, Goan",3.2,5," Cliff Side, Arambol Beach, Arambol, Goa",15.5265665423,73.7656895444
"koi asian dining Restaurant, Calangute",https://www.zomato.com/goa/koi-asian-dining-calangute,"1,200","Asian, Thai, Japanese, Chinese, Burmese, Vietnamese, Singaporean, Malaysian",4.2,352," H No. E1/246, Fort Aguada Road, Gaura Vaddo, Opposite Le Meridien, Calangute, Goa",15.5383151981,73.7614027038
"bliss bites bar restrauant Restaurant, Palolem",https://www.zomato.com/goa/bliss-bites-bar-restrauant-palolem,"1,000","Bar Food, South Indian, Continental, Seafood, Chinese",NEW,," Near Parking Main Gate, Palolem, Goa",15.6704647190,73.7121100724
"royale taste Restaurant, Vasco",https://www.zomato.com/goa/royale-taste-vasco,700,"North Indian, Chinese, Goan",-,," OYO Flagship 400, Anand Residency, Flat C-3/2, Airport Road, Chicalim, Vasco, Goa",15.4009818805,74.0034546331
"xavier pastries Restaurant, Mapusa",https://www.zomato.com/goa/xavier-pastries-mapusa,150,"Bakery, Desserts, Beverages, Juices",-,," Shop 9, Ramachandra Building, Bardez, Mapusa, Goa",15.3211565552,73.9050229266
"souza lobo Restaurant, Calangute",https://www.zomato.com/goa/souza-lobo-restaurant-and-bar-calangute,"1,300","Chinese, Continental, Goan, Finger Food, North Indian",4.4,1692," Calangute Beach, Calangute, Goa",15.5517989996,73.7833119929
"food corner Restaurant, Ponda",https://www.zomato.com/goa/food-corner-ponda,400,"North Indian, Chinese",3.0,5," Shop ALG-19, Heritage Prince, Ponda, Goa",15.2782823385,73.9236468449
"nofilter bar bites Restaurant, Mandrem",https://www.zomato.com/goa/nofilter-bar-bites-mandrem,"1,000",Continental,3.6,82," Mandrem Village Resort, Mandrem Village, Junaswada, Mandrem Beach, Mandrem, Goa",15.4938276466,73.8357475027
"churrasqueria fumado Restaurant, Mapusa",https://www.zomato.com/goa/churrasqueria-fumado-mapusa,600,"Steak, BBQ",-,," House 1, Casa Tipri, Grand Morrod, Opposite European School, Saligao, Mapusa, Goa",15.5322248457,73.7638639659
"family house bar Restaurant, Colva",https://www.zomato.com/goa/family-house-bar-colva,700,"Goan, North Indian, Chinese, Bar Food",NEW,," MDR 43, Near Fish Market, Colva, Goa",15.3874775848,73.8460022584
"nescafe Restaurant, Panaji",https://www.zomato.com/goa/nescafe-panaji,150,Beverages,3.5,90," Miramar Residency, Miramar, Panaji, Goa",15.2541798522,73.9793003351
"jenis restaurant spice kerela Restaurant, Bogmalo",https://www.zomato.com/goa/jenis-restaurant-spice-of-kerela-bogmalo,300,South Indian,NEW,," Dambolim Road, Vasco, Bogmalo, Goa",15.4840131730,73.8090910390
"simrose Restaurant, Palolem",https://www.zomato.com/goa/simrose-palolem,"1,300","Seafood, North Indian, Continental, Goan",2.8,12," Agonda Beach, Near St. Anne’s Church, Canacona, Palolem, Goa",15.6658038731,73.7140734494
"junction Restaurant, Panaji",https://www.zomato.com/goa/the-junction-panaji,650,North Indian,3.8,131," Fifth Floor, Caculo Mall, St. Inez, Panaji, Goa",15.4928871239,73.8218808174
"sai utsav Restaurant, Candolim",https://www.zomato.com/goa/sai-utsav-1-candolim,800,"Chinese, North Indian, South Indian",3.2,13," Fort Aguda Road, Vadi, Candolim, Goa",15.5445639697,73.7557878345
"amritas Restaurant, Mandrem",https://www.zomato.com/goa/amritas-mandrem,800,"Goan, Bar Food",NEW,," 194, Junaswada, Mandrem, Goa",15.5141439610,73.7686644495
"amul Restaurant, Margao",https://www.zomato.com/goa/amul-5-margao,200,Desserts,NEW,," Shop 2, B-2, Royal Plaza, Mandopa Road, Near Canara Bank, Margao, Goa",15.6713689198,73.7145924568
"drunken duck Restaurant, Panaji",https://www.zomato.com/goa/drunken-duck-panaji,800,Finger Food,-,," Avenida J Silveira, Electricity Colony, Santa Inez, Panaji, Goa",15.5101111616,73.7679154426
"amalia novotel goa dona sylvia resort hotel Restaurant, Cavelossim",https://www.zomato.com/goa/amalia-novotel-goa-dona-sylvia-resort-hotel-cavelossim,"1,000",Finger Food,3.1,5," Novotel Goa Dona Sylvia Resort Hotel, Cavelossim, Mobor, Salcette, Goa",15.5509633939,73.7533010915
"mona town 69 Restaurant, Mandrem",https://www.zomato.com/goa/mona-town-69-mandrem,600,"Cafe, Chinese",-,," 123, Querim–Mandrem–Agarwada Road, Junos Vaddo, Mandrem, Goa",15.2243362649,74.0842625499
"om shivai cafe Restaurant, Calangute",https://www.zomato.com/goa/om-shivai-cafe-calangute,800,"Seafood, North Indian, Chinese, Goan, Italian",-,," Khobra Waddo, Calangute Beach, Calangute, Goa",15.0093176569,74.0242229775
"breeze Restaurant, Candolim",https://www.zomato.com/goa/breeze-1-candolim,"1,000","Continental, Goan, North Indian, Seafood",-,," Whispering Palms Beach Resort, Near Sinqurium Beach, Candolim, Goa",15.1741196484,73.9451253042
"kerala appam plus Restaurant, Porvorim",https://www.zomato.com/goa/kerala-appam-plus-porvorim,400,Kerala,3.2,8," Shop 3, Food Court, Delfino's Armacar Building, Alto Porvorim, Goa",15.5899974448,73.7658756226
"eccola Restaurant, Benaulim",https://www.zomato.com/goa/eccola-benaulim,500,"Cafe, Italian",3.5,35," 1610/C, Vasvaddo Beach Road, Benaulim, Goa",15.3698221214,73.8347483799
"village nest Restaurant, Quepem",https://www.zomato.com/goa/village-nest-1-quepem,500,"Goan, Chinese, North Indian, South Indian",3.0,4," Xeldem-Chandor Road, Near Tilamol Church, Quepem, Goa",15.5208234447,73.8287697360
"gopinath cafe Restaurant, Anjuna",https://www.zomato.com/goa/gopinath-cafe-anjuna,400,"North Indian, Chinese",-,," Dewal Waddoo, Anjuna Road, Anjuna, Goa",15.2691336946,73.9656297863
"shivam family restaurant Restaurant, Margao",https://www.zomato.com/goa/shivam-family-restaurant-margao,500,"North Indian, Mughlai",3.6,26," Opposite CD Fountainhead, Murida, Fatorda, Margao, Goa",15.5697727000,73.7537725000
"fes deli Restaurant, Margao",https://www.zomato.com/goa/fes-deli-margao,300,Fast Food,3.7,24," Shop 10, P.M Dias Residency, St. Joaquim Chapel, Borda, Margao, Goa",15.4864791130,73.8178370520
"laxmi hotel  Restaurant, Margao",https://www.zomato.com/goa/laxmi-hotel-margao,250,"Goan, North Indian, Seafood",NEW,," Malbhat, Margao, Goa",15.2899871434,73.9698914811
"cafe capricorn Restaurant, Siolim",https://www.zomato.com/goa/cafe-capricorn-siolim,500,"Goan, North Indian, Chinese, Continental, Fast Food",3.3,13," Bamon Waddo, Near S.F.X School, Siolim, Goa",15.2530474026,73.9288670942
"teso waterfront Restaurant, Vagator",https://www.zomato.com/goa/teso-waterfront-vagator,"1,000","Goan, Continental",3.6,55," 301, Vaddy, Siolim, Vagator, Goa",15.6214065578,73.7685424089
"oasis carina beach resort Restaurant, Benaulim",https://www.zomato.com/goa/oasis-carina-beach-resort-benaulim,"1,000","Continental, Goan, North Indian, Chinese",3.0,5," Carina Beach Resort, Benaulim, Goa",15.2594315435,73.9254875109
"rotis pure veg restaurant Restaurant, Bardez",https://www.zomato.com/goa/rotis-pure-veg-restaurant-bardez,350,North Indian,-,, Delivery Only,15.4997130055,73.8331206143
"rudys golden mermaid Restaurant, Calangute",https://www.zomato.com/goa/rudys-golden-mermaid-calangute,800,"North Indian, Seafood, Goan, Continental, Chinese",3.4,16," Calangute Beach, Calangute, Goa",15.4647783492,73.8541018590
"niyaaz Restaurant, Bambolim",https://www.zomato.com/goa/niyaaz-bambolim,600,"Mughlai, North Indian, Biryani, Goan",4.0,223," Shop 4-5, Kenkre Center, Near Goa Medical College, Bambolim, Goa",15.6162738069,73.7555437535
"nugalas amul ice cream parlour Restaurant, Bogmalo",https://www.zomato.com/goa/nugalas-amul-ice-cream-parlour-bogmalo,150,"Desserts, Ice Cream",NEW,," Bagmalo Beach, Bogmalo, Goa",15.5055397205,73.7695492432
"bharat restaurant Restaurant, Panaji",https://www.zomato.com/goa/bharat-restaurant-panaji,600,"Fast Food, North Indian",-,," Near Patto Bridge, Panaji, Goa",15.2826359386,73.9688534662
"pings bia hoi Restaurant, Porvorim",https://www.zomato.com/goa/pings-bia-hoi-porvorim,"1,400",Asian,3.8,54," House 78, Mae De Deus Vaddo, Chogm Road, Sangolda, Porvorim, Goa",15.5322009414,73.7587040663
"navratna udupi pure veg restaurant Restaurant, Penha de Franca",https://www.zomato.com/goa/navratna-udupi-pure-veg-restaurant-penha-de-franca,500,"Chinese, Fast Food, North Indian, South Indian, Street Food, Desserts, Beverages",3.6,71," Calangute-Candolim Road, Alto Porvorim, Penha de Franca, Goa",15.6198960000,73.7859560000
"summer villa bar restaurant Restaurant, Candolim",https://www.zomato.com/goa/summer-villa-bar-restaurant-candolim,800,"Goan, Continental, Seafood, North Indian, Chinese",-,," Sequeira Vaddo, Candolim, Goa",15.4036456566,74.0095878392
"toy beach club Restaurant, Candolim",https://www.zomato.com/goa/toy-beach-club-candolim,"2,500","Continental, European, Italian, Japanese, North Indian",4.9,473," Candolim Beach Road, Candolim, Goa",0.0000000000,0.0000000000
"hotel sameera Restaurant, Ponda",https://www.zomato.com/goa/hotel-sameera-ponda,300,"Goan, North Indian",3.2,5," Shop G-4 & G-8, Vinayak Appartments, Panditwada, Ponda, Goa",0.0000000000,0.0000000000
"evergreen bar restaurant  Restaurant, Anjuna",https://www.zomato.com/goa/evergreen-bar-restaurant-anjuna,700,"Thai, Fast Food, North Indian, Chinese, Goan, Continental",-,," Near Anjuna Football Ground, Anjuna, Goa",15.6905263182,73.7022630125
"7 sea Restaurant, Calangute",https://www.zomato.com/goa/7-sea-calangute,500,Continental,-,," Umtavado, Near Calangute Beach, Calangute, Goa",15.2745965368,73.9555795491
"phoenix restro bar Restaurant, Arambol",https://www.zomato.com/goa/phoenix-restro-bar-arambol,800,"Bar Food, North Indian, Chinese, Fast Food",-,," Arambol Beach, Arambol, Goa",15.5698542949,74.0296041593
"swagat Restaurant, Margao",https://www.zomato.com/goa/swagat-1-margao,700,"Chinese, Fast Food",3.1,6," Comb, Margao, Goa",15.3696562761,73.8358266279
"master chef Restaurant, Old Goa",https://www.zomato.com/goa/master-chef-old-goa,400,"Goan, Chinese, North Indian",3.5,25," Shop 6, House Of Bom Jesus Society, Near HP Petrol Pump, Old Goa, Goa",15.5408082691,73.7567554414
"jalsa resort rio Restaurant, Baga",https://www.zomato.com/goa/jalsa-resort-rio-baga,"1,800","Gujarati, Rajasthani",3.0,7," Near Baga Beach, Tambudki, Arpora, Baga, Goa",15.5204981334,73.8283238187
"white house Restaurant, Bicholim",https://www.zomato.com/goa/white-house-bicholim,800,"Seafood, North Indian",-,," Behind Goa Institute of Management, Sanquelim Campus, Sattari, Poriem, Bicholim, Goa",15.6658119437,73.7140794843
"bytes  Restaurant, Bogmalo",https://www.zomato.com/goa/bytes-bogmalo,350,"Fast Food, Italian",NEW,," Bagmalo Beach, Bogmalo, Goa",15.2762858167,73.9153618366
"friends corner Restaurant, Vasco",https://www.zomato.com/goa/friends-corner-1-vasco,400,"North Indian, Goan",-,," Near MPT Hall, Dattatreya Deshpande Road, Vasco, Goa",15.5684700000,73.7596100000
"bakery café Restaurant, Mandrem",https://www.zomato.com/goa/bakery-café-mandrem,400,Cafe,-,," Mandrem Village Resort, Junaswada, Mandrem Beach, Mandrem, Goa",15.3950995368,73.8073948771
"snows family pastry Restaurant, Benaulim",https://www.zomato.com/goa/snows-family-pastry-benaulim,200,Bakery,-,," Shop 8, Rosary Complex, Near Rosary College, Navelim, Benaulim, Goa",15.2549875395,73.9654188976
"49ers Restaurant, Colva",https://www.zomato.com/goa/49ers-colva,500,"Continental, Goan, Chinese, North Indian, South Indian",3.2,159," Hotel Sea, Coin Beach, Colva, Goa",15.5017006010,73.9155687019
"big fish Restaurant, Assagao",https://www.zomato.com/goa/big-fish-assagao,500,"Chinese, Seafood, North Indian, Goan",3.8,21," Sivolim Road Bardem, Assagao, Goa",15.6036806512,73.7620403990
"red cake Restaurant, Mapusa",https://www.zomato.com/goa/the-red-cake-mapusa,300,"Bakery, Desserts, Fast Food",-,," Arpora, Near Mapusa, Goa",15.5638980000,73.7646490000
"luretha pollys bar restaurant Restaurant, Calangute",https://www.zomato.com/goa/luretha-and-pollys-bar-and-restaurant-calangute,600,"Goan, Seafood",-,," Mado Vaddo, Calangute, Goa",15.5483250929,73.7642599270
"lazy dog Restaurant, Arambol",https://www.zomato.com/goa/lazy-dog-arambol,900,"Finger Food, Continental",3.7,27," Junaswada 59, Mandrem, Mandrem, Goa",15.5286433606,73.7599435821
"damus corner Restaurant, Calangute",https://www.zomato.com/goa/damus-corner-calangute,500,North Indian,-,," Near Golden Nest Hotel, Porbo Vaddo, Calangute, Goa",15.5173706606,73.7635866925
"shivers Restaurant, Candolim",https://www.zomato.com/goa/shivers-candolim,"1,500","Continental, Goan, North Indian, Naga, Seafood",4.1,241," H 137/A, Opposite Kingfisher Villa, Fort Aguada Road, Dando, Candolim, Goa",15.5842840000,73.7535210000
"hyderabadi bawarchi dum biryani Restaurant, Panaji",https://www.zomato.com/goa/hyderabadi-bawarchi-dum-biryani-panaji,400,"Biryani, Chinese",2.9,32," Shop 1-2, Evergreen Apartment, Opposite Haji Ali Hotel, St. Inez, Panaji, Goa",15.5887386164,73.9456614107
"pint cafe Restaurant, Candolim",https://www.zomato.com/goa/pint-cafe-candolim,450,"North Indian, Seafood, Italian, Goan",-,," Candolim Beach, Candolim, Goa",15.4669530519,73.8073811308
"atrium cafe Restaurant, Ponda",https://www.zomato.com/goa/atrium-cafe-ponda,800,"Cafe, Fast Food, Continental",2.7,28," BSNL Road, Khadpabandh, Ponda, Goa",15.5870247500,73.9493021742
"chefs restaurant take away Restaurant, Vasco",https://www.zomato.com/goa/chefs-restaurant-and-take-away-vasco,300,"Mughlai, Biryani, North Indian",3.1,5," 07, Vasco Tower Building, Pixem Dongri, Vasco-Da-Gama, Vasco, Goa",15.3988475380,73.8119851425
"cookhouse Restaurant, Panaji",https://www.zomato.com/goa/the-cookhouse-panaji,500,Goan,-,," Shop 13/14, Models Millenium Vista, Caranzalem, Panaji, Goa",15.6670906362,73.7137284502
"nata goa Restaurant, Anjuna",https://www.zomato.com/goa/nata-goa-anjuna,550,"Healthy Food, Portuguese",3.4,11," 907, Market Road, Pequeno Peddem, Monteiro Vaddo, Anjuna, Goa",15.4905815164,73.8198433444
"la cucina Restaurant, Ashwem",https://www.zomato.com/goa/la-cucina-ashwem,600,"Italian, Pizza",4.0,80," 749, Morjim, Ashwem, Goa",15.5339340001,73.7581511959
"mohnish restaurant Restaurant, Bicholim",https://www.zomato.com/goa/mohnish-restaurant-1-bicholim,550,"Chinese, Goan, North Indian",-,," Near Koteshwar Lodge, Bicholim, Goa",15.5128888684,73.7698724493
"matcha Restaurant, Panaji",https://www.zomato.com/goa/matcha-panaji,800,"Asian, Japanese, Sushi",-,," Near Pooja Medical Store, Panaji, Goa",15.5764098924,73.7458016351
"red mango radisson goa candolim Restaurant, Candolim",https://www.zomato.com/goa/red-mango-radisson-goa-candolim-candolim,"1,400",Seafood,-,," Fort Aguada Road, Bammon Vaddo, Candolim, Goa",15.5094104293,73.7705681473
"pinto bar restaurant Restaurant, Panaji",https://www.zomato.com/goa/pinto-bar-restaurant-panaji,800,Goan,-,," Near St. Inez Church, Panaji, Goa",15.4865915530,73.8200418279
"royal sweet mart Restaurant, Bicholim",https://www.zomato.com/goa/royal-sweet-mart-bicholim,150,Mithai,NEW,," Old Market, Bicholim, Goa",15.4014072595,74.0048641339
"reggies shack Restaurant, Calangute",https://www.zomato.com/goa/reggies-shack-calangute,700,"North Indian, Chinese, Continental, Goan, Seafood",3.2,10," Holiday Street, Calangute Beach, Gaura Vaddo, Calangute, Goa",15.5042971756,73.7716852874
"royale exotica sky lounge Restaurant, Calangute",https://www.zomato.com/goa/royale-exotica-sky-lounge-calangute,"1,100","North Indian, Chinese, Seafood, Goan",3.5,9," Royale Exotica, Maddo Waddo, Calangute, Goa",15.2144958427,74.0696317703
"bawarchi biryani Restaurant, Candolim",https://www.zomato.com/goa/bawarchi-biryani-candolim,200,Biryani,-,," Shop 2, Neural Candolim Road, Tito Beach, Candolim, Goa",15.3999171362,74.0156261623
"banyan tree taj holiday village resort spa Restaurant, Candolim",https://www.zomato.com/goa/banyan-tree-taj-holiday-village-resort-spa-candolim,"3,000",Asian,4.3,112," Taj Holiday Village Resort & Spa, Bardez, Candolim, Goa",15.5415466878,73.7568211555
"om bhel puri Restaurant, Ponda",https://www.zomato.com/goa/om-bhel-puri-ponda,200,Street Food,3.3,5," Opposite St. Marry High School, Ponda, Goa",15.5864314977,73.7596146762
"brancos restaurant bar Restaurant, Panaji",https://www.zomato.com/goa/brancos-restaurant-and-bar-panaji,600,Goan,3.3,5," 333-335, Opposite Dukle Residency, Panaji, Goa",15.5002935844,73.7711418048
"pastry station Restaurant, Anjuna",https://www.zomato.com/goa/pastry-station-anjuna,300,"Desserts, Fast Food",-,," Near HP Petrol Pump, Anjuna, Goa",15.6402222077,73.7229324505
"dreamland cafe Restaurant, Mapusa",https://www.zomato.com/goa/dreamland-cafe-mapusa,400,"Goan, Fast Food, Chinese, North Indian",2.8,8," Shop C-4, Chandranath Aprtment, Opposite Police Station, Mapusa, Goa",15.4842348245,73.8204538822
"beach hut caravela beach resort Restaurant, Benaulim",https://www.zomato.com/goa/beach-hut-caravela-beach-resort-benaulim,"1,500","Goan, Seafood",3.2,21," Caravela Beach Resort, Varca Beach, Benaulim, Goa",15.2177223303,74.0797621384
"zest vegan vegetarian cafe Restaurant, Quepem",https://www.zomato.com/goa/zest-vegan-and-vegetarian-cafe-quepem,400,"Fast Food, Salad",3.3,4," Agonda Beach Road, Near Quepem, Goa",15.5338196478,73.7582098693
"pastry palace Restaurant, Quepem",https://www.zomato.com/goa/pastry-palace-quepem,200,"Bakery, Fast Food",-,," AG-5, Rosary Commercial Arcade, Navelim, Quepem, Goa",15.5908148073,73.8088342175
"sea pearl Restaurant, Calangute",https://www.zomato.com/goa/sea-pearl-calangute,600,"North Indian, Continental, Chinese, Goan, Seafood",-,," Calangute Beach, Gaura Vaddo",15.0111427987,74.0351932123
"thalassa Restaurant, Siolim",https://www.zomato.com/goa/thalassa-siolim,"2,000","Greek, Mediterranean",4.4,3810," Plot 301, 1, Near Teso Waterfront, Vaddy, Siolim, Goa",15.1714678390,73.9740559459
"ruchik fast food Restaurant, Cavelossim",https://www.zomato.com/goa/ruchik-fast-food-cavelossim,250,"Chinese, North Indian",-,," Velim, Cavelossim, Goa",15.2125155385,73.9396623150
"rock point Restaurant, Palolem",https://www.zomato.com/goa/the-rock-point-palolem,400,Fast Food,-,," Palolem Beach Road, Palolem, Goa",15.5105337321,73.7715810165
"lobby bar country inn suites by radisson Restaurant, Candolim",https://www.zomato.com/goa/lobby-bar-country-inn-suites-by-radisson-candolim,"2,000","Finger Food, North Indian, Continental",-,," Country Inn & Suites By Radisson, Bammonvaddo, Candolim, Goa",15.5944594742,73.9440722018
"kundan purohit sweets Restaurant, Bicholim",https://www.zomato.com/goa/kundan-purohit-sweets-bicholim,200,Mithai,NEW,," Opposite Central Bank, Bordem, Bicholim, Goa",15.2560556099,73.9665953815
"wildwood pizza studio rotisserie Restaurant, Vasco",https://www.zomato.com/goa/wildwood-pizza-studio-rotisserie-vasco,"1,000","Italian, Pizza, Beverages, Desserts",3.1,12," Villa Boa Ventura, Main Dabolim Airport Road, Sancoale, Vasco, Goa",15.3881593340,73.8586086407
"cafe ave maria Restaurant, Panaji",https://www.zomato.com/goa/cafe-ave-maria-1-panaji,350,"Fast Food, Bakery",3.6,23," 18/145 Vodlem Bhat Taleigao Tiswadi Panaji, Goa",15.5209536337,73.8287657127
"sweet dreams bakery Restaurant, Margao",https://www.zomato.com/goa/sweet-dreams-bakery-2-margao,400,Bakery,-,," 317, Buticas, Navelim, Salcete, Margao, Goa",15.6159344390,73.7556600943
"susagade Restaurant, Vagator",https://www.zomato.com/goa/susagade-vagator,500,"Goan, North Indian, Chinese",3.2,8," Vagator Beach Road, Vagator, Goa",15.5978760889,73.7466663122
"chat street Restaurant, Penha de Franca",https://www.zomato.com/goa/chat-street-1-penha-de-franca,200,Street Food,-,," Delfino's Shopping Complex, Penha de Franca, Goa",15.5430038000,73.7607593000
"saahil hotel Restaurant, Calangute",https://www.zomato.com/goa/saahil-hotel-calangute,500,"Goan, Chinese, North Indian",3.1,7," Khobra Vaddo, Baga Road, Bardez, Calangute, Goa",15.5939192047,73.7357239053
"cardozo holiday inn bar restaurant Restaurant, Bardez",https://www.zomato.com/goa/cardozo-holiday-inn-bar-restaurant-bardez,600,"North Indian, South Indian, Chinese, Fast Food",-,," 5/77, Ward V, Maddo Vaddo, Calangute, Bardez, Goa",15.5501791424,73.7592317909
"larive beach resort restaurant Restaurant, Vagator",https://www.zomato.com/goa/larive-beach-resort-restaurant-vagator,"1,500","Asian, European, Continental",3.8,33," Behind Vagator Parish Youth Sports Club, Ozran Beach Little Vagator, Goa",15.5871071012,73.7918893620
"blue monkey Restaurant, Penha de Franca",https://www.zomato.com/goa/blue-monkey-penha-de-franca,600,"Italian, Fast Food",3.5,38," 406/134, PDA Colony, NH 17, Alto Porvorim, Opposite Hotel Orion, Penha de Franca, Goa",15.4762351885,73.8206708059
"soro Restaurant, Vagator",https://www.zomato.com/goa/soro-vagator,"1,200","Italian, Continental",4.2,261," Assagaon, Siolim Road, Vagator, Goa",0.0000000000,0.0000000000
"amantes paraiso Restaurant, Mapusa",https://www.zomato.com/goa/amantes-paraiso-mapusa,"1,000",Goan,-,," Naika Vaddo, Verla Parra, Mapusa, Goa",15.4705116950,73.9257191867
"pine tree Restaurant, Calangute",https://www.zomato.com/goa/pine-tree-calangute,700,"North Indian, Goan, Continental, Chinese",2.8,12," Near Shalala Handicraft, Calangute Beach, Calangute, Goa",15.5994616630,73.7390277162
"comida caseira Restaurant, Vagator",https://www.zomato.com/goa/comida-caseira-vagator,"1,400","Continental, Portuguese, Goan",4.0,63," Vagator Beach Road, Bardez, Coutinho Vaddo, Vagator, Goa",15.5264757679,73.8262896985
"psy bar restaurant Restaurant, Arambol",https://www.zomato.com/goa/psy-bar-restaurant-arambol,500,"Italian, French, North Indian",-,," Near Pay Park, Arambol, Goa",15.6011615398,73.7614744529
"amavi Restaurant, Calangute",https://www.zomato.com/goa/amavi-calangute,"2,000",Continental,4.2,86," Cottage Number 88, Behind The Art Chamber, Guaravaddo, Calangute, Goa",15.4064325486,74.0078490973
"cafe central Restaurant, Panaji",https://www.zomato.com/goa/cafe-central-panaji,200,"Bakery, Desserts",4.2,121," Ishan Building, Dr. Pisurlekar Road, Panaji, Goa",15.2699122149,73.9632231742
"sea creek Restaurant, Ashwem",https://www.zomato.com/goa/sea-creek-ashwem,700,"Continental, North Indian, Chinese, Goan",3.1,5," Ashwem, Mandrem, Ashwem, Goa",15.5294935934,73.7598577514
"taris Restaurant, Ponda",https://www.zomato.com/goa/taris-ponda,300,"Goan, Chinese",3.2,5," Ponda Panjim, Nh 4 Highway, Ponda, Goa",15.3985478943,73.8109853491
"village hut Restaurant, Old Goa",https://www.zomato.com/goa/village-hut-old-goa,250,"Fast Food, Seafood",-,," Bhatt Pisvadi, Carambolim, Old Goa, Goa",15.6502968697,73.7162654847
"q ba Restaurant, Cavelossim",https://www.zomato.com/goa/q-ba-cavelossim,"1,000","Seafood, Goan",3.4,12," Cavelossim Beach, Cavelossim, Goa",15.1757857896,73.9478440583
"nizamis food corner Restaurant, Margao",https://www.zomato.com/goa/nizamis-food-corner-margao,200,Biryani,-,," Behind Jama Masjid Road, Margao, Goa",15.4978620563,73.8269984722
"new banarasi dairy restaurant Restaurant, Vasco",https://www.zomato.com/goa/new-banarasi-dairy-restaurant-vasco,100,Street Food,-,," Shop 17, Commerce Center Building, Opposite Vasco Fish Market, Vasco, Goa",0.0000000000,0.0000000000
"bakery division Restaurant, Panaji",https://www.zomato.com/goa/the-bakery-division-panaji,300,"Bakery, Desserts",3.5,33," Models Millennium Vistas, Building Number 3, Caranzalem, Panaji, Goa",15.5339139723,73.7677535042
"matasya Restaurant, Baga",https://www.zomato.com/goa/matasya-baga,"2,000","North Indian, Italian",-,," 7/225/A, Saunta Vaddo, Baga, Goa",0.0000000000,0.0000000000
"barrica bistro bar restaurant Restaurant, Vagator",https://www.zomato.com/goa/barrica-bistro-bar-restaurant-vagator,700,"North Indian, Chinese, Fast Food, Continental",-,," Hotel Sindola Inn By Hotel Lotus Inn, Anjuna, Vagator, Goa",15.4664719049,73.8087530807
"barbro Restaurant, Baga",https://www.zomato.com/goa/barbro-baga,500,"Andhra, Biryani",-,," Opposite Acron Waterfront, On The Seaward Side Of Baga Bridge, Baga, Goa",15.5189752691,73.7625198439
"doms Restaurant, Cavelossim",https://www.zomato.com/goa/doms-cavelossim,800,"Seafood, North Indian, Continental, Chinese",3.0,11," Mobor Beach, Cavelossim, Salcette, Goa",15.5378290490,73.7578286603
"chika palace restaurant bar Restaurant, Arambol",https://www.zomato.com/goa/chika-palace-restaurant-bar-arambol,650,"Arabian, Asian, Bar Food, Biryani",-,," Girkarwada, Arambol, Goa",15.5682907776,73.7528052181
"baba au rhum Restaurant, Anjuna",https://www.zomato.com/goa/baba-au-rhum-1-anjuna,"1,000",Cafe,4.5,1627," 1054, Sim Vaddo, Anjuna, Goa",15.5897526553,73.8107033819
"sweet sour restaurant Restaurant, Calangute",https://www.zomato.com/goa/sweet-sour-restaurant-calangute,700,"Chinese, Goan, North Indian, Fast Food",3.2,13," Shop C53, Benson Complex, Naika Vaddo, Opposite SBI, Calangute, Goa",15.5756860000,73.7416640000
"thirumala fast food Restaurant, Baga",https://www.zomato.com/goa/thirumala-fast-food-baga,200,South Indian,3.1,5," Arpora Calangute Road, Bardez, Baga, Goa",15.5649324533,73.7496968731
"comida double tree by hilton goa Restaurant, Panaji",https://www.zomato.com/goa/comida-double-tree-by-hilton-goa-panaji,"2,000","North Indian, Asian, Italian, Mediterranean",4.1,24," DoubleTree by Hilton Goa - Panaji Kadamba Plateau, Panjim Old Goa Bypass Road, Velha, Panaji, Goa",15.4915488666,73.9228371531
"sai udupi pure veg restaurant Restaurant, Calangute",https://www.zomato.com/goa/sai-udupi-pure-veg-restaurant-calangute,250,"South Indian, North Indian, Chinese, Beverages, Coffee",3.2,6," Shop 2, H 2/251A, Naika Vaddo, Calangute, Goa",15.3927666589,74.0004964918
"sai shubadha Restaurant, Mapusa",https://www.zomato.com/goa/sai-shubadha-mapusa,700,"North Indian, Goan, Chinese",-,," Britton Vaddo, Parra, Mapusa, Goa",15.6807896728,73.7049100176
"beach queen Restaurant, Calangute",https://www.zomato.com/goa/beach-queen-calangute,750,"North Indian, Chinese, Goan, Continental",3.3,14," Khobra Vaddo, Calangute Beach, Calangute, Goa",15.2950807659,73.9154550433
"cafe baga Restaurant, Baga",https://www.zomato.com/goa/cafe-baga-baga,"1,200","North Indian, Continental, Chinese",-,," The Baga Marina, Saunta, Khobra Vaddo, Baga, Goa",15.2744862463,73.9556496218
"poolside bar Restaurant, Candolim",https://www.zomato.com/goa/poolside-bar-candolim,"2,000","North Indian, Chinese, Goan, Mughlai",-,," Phoenix Park Inn Resort, Ground Floor, Sequira Vado Beach, Candolim, Goa",15.3177618903,73.9035446942
"garden Restaurant, Colva",https://www.zomato.com/goa/the-garden-colva,"1,200","North Indian, Goan, Chinese",3.7,56," La Ben Resort, Colva Beach Road, Colva, Goa",15.5366416128,73.7628168985
"riverside leela Restaurant, Cavelossim",https://www.zomato.com/goa/riverside-the-leela-cavelossim,"3,000",Italian,3.8,40," The Leela, Mobor, Cavelossim, Goa",15.1714781939,73.9419086650
"royal enfield garage cafe Restaurant, Baga",https://www.zomato.com/goa/royal-enfield-garage-cafe-baga,"1,200","Salad, Continental, Goan, Italian",4.4,172," House #560, Villa Rodrigues, Arpora-Baga Creek Road, Arpora, Bardez, Goa",15.5704401667,73.7892939895
"coastal Restaurant, Old Goa",https://www.zomato.com/goa/coastal-old-goa,600,"Chinese, North Indian, Goan, Seafood",3.1,5," Shubhankar Heritage, Near Karmali Railway Station, Karmali, Old Goa, Goa",15.5954486191,73.8133165240
"manuels sugar shack Restaurant, Candolim",https://www.zomato.com/goa/manuels-sugar-shack-candolim,"1,000","Goan, Seafood, Continental, Chinese",-,," Candolim Beach, Candolim, Goa",15.2855373182,73.9572334662
"mahasagar beach restaurant bar Restaurant, Calangute",https://www.zomato.com/goa/mahasagar-beach-restaurant-bar-calangute,800,"Chinese, Continental, North Indian, Seafood",-,," Near Paradise Village Beach Resort, Calangute, Goa",15.5596823377,73.7639648840
"chef uncle Restaurant, Mapusa",https://www.zomato.com/goa/chef-uncle-mapusa,400,"Chinese, Fast Food",-,," Mapusa Municipal Market, Opposite Bharat Petroleum, Mapusa, Goa",15.4996134960,73.8294979557
"vams Restaurant, Anjuna",https://www.zomato.com/goa/vams-anjuna,700,"Cafe, Continental, Italian",3.2,6," House 649, Goenkarwado, Anjuna, Goa",15.2721267934,73.9639597759
"ingredients Restaurant, Calangute",https://www.zomato.com/goa/ingredients-calangute,"1,500",Continental,3.2,22," Sinq Beach Resort, Tivai Vaddo, Calangute, Goa",15.6223083923,73.7344887480
"grapevine hq Restaurant, Vasco",https://www.zomato.com/goa/grapevine-the-hq-vasco,800,"Continental, North Indian, Goan, Fast Food",3.9,70," The HQ, Swatantra Path, Vasco, Goa",15.2566080803,73.9192949608
"rudrakshs shivang Restaurant, Ponda",https://www.zomato.com/goa/rudrakshs-shivang-ponda,400,"North Indian, Goan",-,," Fonseca Arcade, Tiska, Ponda, Goa",15.5004874334,73.8271178305
"rolls mania Restaurant, Margao",https://www.zomato.com/goa/rolls-mania-margao,450,"Rolls, Fast Food",4.1,127," Shop 105, Chrismichelle Building, Panjifond, Margao, Goa",15.3973331532,73.8129212335
"navadeep classic Restaurant, Margao",https://www.zomato.com/goa/navadeep-classic-margao,400,"Goan, North Indian",3.0,4," Shop 24-27, Upper Ground Floor, Vasant Arcade, Comba, Margao, Goa",15.5754440000,73.7617370000
"union cafe restaurant Restaurant, Mapusa",https://www.zomato.com/goa/union-cafe-restaurant-mapusa,"1,000","Chinese, Goan, Seafood, Mughlai",3.3,27," Near Mapusa Industrial Estate, Behind HDFC Bank, Mapusa, Goa",15.2783583438,73.9236733317
"xcuse bar Restaurant, Betalbatim",https://www.zomato.com/goa/xcuse-bar-betalbatim,500,Finger Food,-,," 79, Mango Hotels - Jasminn, Nagwaddo, Betalbatim, Goa",15.5424378904,73.7671744823
"poseidons cove Restaurant, Majorda",https://www.zomato.com/goa/poseidons-cove-majorda,"1,500","BBQ, Seafood",3.0,9," 30/3 Planet Hollywood Beach Resort, Acsona Waddo, Uttorda Beach, Goa",15.5772489473,73.9391858876
"delhi darbar Restaurant, Panaji",https://www.zomato.com/goa/delhi-darbar-panaji,"1,000","North Indian, Mughlai, Chinese, Goan",4.0,290," Neurekar House, M G Road, Panaji, Goa",15.5452917156,73.7634837627
"ryan snacks food hub Restaurant, Margao",https://www.zomato.com/goa/ryan-snacks-food-hub-margao,400,"Fast Food, Street Food, Biryani",-,," Shop B 10, Ground Floor, 1/1890, Osia Market Complex, Salcete, Margao, Goa",15.5147500209,73.7700632215
"house family restaurant bar Restaurant, Colva",https://www.zomato.com/goa/house-family-restaurant-bar-colva,800,"Chinese, Goan, North Indian, Seafood, Bar Food",-,," Near Colva Church, Colva, Goa",15.4835049246,73.8102648407
"gazaali family bar restaurant Restaurant, Panaji",https://www.zomato.com/goa/gazaali-family-bar-and-restaurant-panaji,450,"North Indian, Chinese, Goan",-,," 1st Floor, Above Confetaria, Panaji, Goa",15.5559130241,73.7576130778
"tikka factory Restaurant, Panaji",https://www.zomato.com/goa/the-tikka-factory-1-panaji,500,"North Indian, Chinese, Goan",-,," Royal Beach Hotel, Road 1, Albamar Colony, Miramar, Panaji, Goa",15.5763430392,73.7556550652
"long bay Restaurant, Morjim",https://www.zomato.com/goa/the-long-bay-morjim,600,"Chinese, Goan, North Indian",-,," 1056/A, Madhlawada, Morjim, Pernem, Goa",15.5474419909,73.7546864524
"rafaels bar bistro Restaurant, Benaulim",https://www.zomato.com/goa/rafaels-bar-bistro-benaulim,500,"Goan, North Indian, Continental, Chinese",-,," Main Benaulim Beach, Benaulim Salcete, South Goa, Benaulim, Goa",15.2761836129,73.9166657254
"narayan Restaurant, Bicholim",https://www.zomato.com/goa/narayan-bicholim,400,Fast Food,-,," Opposite Mayem Lake, Bicholim, Goa",15.1741151182,73.9451273158
"love shack Restaurant, Baga",https://www.zomato.com/goa/love-shack-baga,"1,000",Goan,-,," Baga Beach, Baga, Goa",15.5518329147,73.7528300285
"hari om Restaurant, Calangute",https://www.zomato.com/goa/hari-om-calangute,400,North Indian,3.3,11," Near Central Bank, Calangute, Goa",15.5286255935,73.8293299824
"fins rambooze zuri white sands resort Restaurant, Benaulim",https://www.zomato.com/goa/fins-rambooze-the-zuri-white-sands-resort-benaulim,"1,800","Goan, Seafood",3.0,12," The Zuri White Sands Resort, Pedda, Varca, Benaulim, Goa",15.3999032370,73.8246170059
"royal afghan itc grand goa resort spa Restaurant, Majorda",https://www.zomato.com/goa/the-royal-afghan-itc-grand-goa-resort-and-spa-majorda,"2,000",BBQ,3.5,15," Arossim Beach, Cansaulim, Majorda, Goa",15.5458773343,73.7622066960
"samsil foods Restaurant, Penha de Franca",https://www.zomato.com/goa/samsil-foods-penha-de-franca,200,"Lebanese, Biryani",-,," Near Mall De Goa, Porvorim, Penha de Franca, Goa",15.2237086553,73.9347203448
"why not tashi Restaurant, Calangute",https://www.zomato.com/goa/why-not-tashi-calangute,700,"North Indian, Chinese, Fast Food, Goan, Seafood",2.7,23," 203/ B2, Porba Vaddo, Calangute, Goa",15.3277533263,73.9003159851
"quality kitchen Restaurant, Calangute",https://www.zomato.com/goa/quality-kitchen-calangute,500,"Chinese, North Indian",-,," E/53, Tivi Waddo, Calangute, Goa",15.3694141353,73.8354833052
"castaad kitchen Restaurant, Palolem",https://www.zomato.com/goa/castaad-kitchen-palolem,200,Fast Food,3.1,4," South Goa, Palolem, Goa",15.3695450659,73.8346494734
"cafe krishnai Restaurant, Mapusa",https://www.zomato.com/goa/cafe-krishnai-mapusa,150,Beverages,-,," Near Dulair Football Stadium, Mapusa, Goa",15.5260686208,73.8269494497
"stone house Restaurant, Candolim",https://www.zomato.com/goa/the-stone-house-candolim,"1,000","Continental, North Indian, Italian",3.8,143," Souza Vaddo, Fort Aguada Road, Candolim, Goa",15.5395685208,73.7671376020
"hot spice restaurant bar Restaurant, Old Goa",https://www.zomato.com/goa/hot-spice-restaurant-and-bar-old-goa,500,"Chinese, Goan",-,," Damodar Building, Near Ferry Jetty for Chorao, Ribandar, Old Goa, Goa",15.4644306532,73.8525253907
"biryani paradise Restaurant, Panaji",https://www.zomato.com/goa/biryani-paradise-panaji,250,"Biryani, Lebanese",-,," Santa Inez Road, Santa Inez, Altinho, Panaji, Goa",15.2706425400,73.9606016502
"house lloyds Restaurant, Candolim",https://www.zomato.com/goa/house-of-lloyds-candolim,"2,000","Goan, Seafood, Continental",4.2,277," Near Candolim Church, Candolim, Goa",15.5415466878,73.7559943646
"cantare Restaurant, Calangute",https://www.zomato.com/goa/cantare-calangute,800,"Mexican, American, Italian, Seafood, Goan, Thai",4.0,109," 7/73 B, Cruz Waddo, Saligao, Near Calangute, Goa",15.2856964385,73.9571536705
"vegas deltin suites Restaurant, Nerul",https://www.zomato.com/goa/vegas-deltin-suites-nerul,"1,000","Continental, Italian, South Indian, North Indian",3.4,32," Deltin Suites, Nerul-Candolim Road, Nerul, Goa",15.5484239329,73.7646461651
"rados beer biryani Restaurant, Baga",https://www.zomato.com/goa/rados-beer-biryani-baga,500,"North Indian, Mughlai",3.2,7," Shop 1, 2, 4, Block A-4, Paraiso De Praia Ground Floor, Baga Marina, Baga Beach Road, Baga, Goa",15.5402630134,73.7609829381
"udipi coffee house Restaurant, Panaji",https://www.zomato.com/goa/udipi-coffee-house-panaji,200,"South Indian, Goan",3.4,15," Near Asad Maidan, Bank Of Baroda, Panaji, Goa",15.2772202029,73.9275702462
"liquid lounge kenilworth resort Restaurant, Majorda",https://www.zomato.com/goa/liquid-lounge-kenilworth-resort-majorda,800,Finger Food,-,," Kenilworth Resort & Spa, Utorda, Majorda, Goa",15.4920871430,73.8204183429
"bombay sultaani biryani house Restaurant, Panaji",https://www.zomato.com/goa/the-bombay-sultaani-biryani-house-panaji,450,"North Indian, Biryani",NEW,," 37, Model Meridien, Dr Jack Sequeira Road, Caranzalem, Panaji, Goa",14.9585377573,74.0536079183
"twisted tiffin Restaurant, Panaji",https://www.zomato.com/goa/twisted-tiffin-panaji,400,"Goan, North Indian",-,," Plot 37/38, SGO Complex, Near Passport Office, EDC, Patto, Panaji, Goa",15.5051061552,73.8634480163
"o prato Restaurant, Baga",https://www.zomato.com/goa/o-prato-baga,700,"Continental, Goan, North Indian",3.3,9," Tambudki Vaddo, Arpora, Baga, Goa",15.5233160811,73.7884671986
"yocoko Restaurant, Anjuna",https://www.zomato.com/goa/yocoko-anjuna,400,"North Indian, South Indian, Chinese",-,," Gaunkar Vaddo, Anjuna, Goa",15.3177479856,73.9035537466
"bay 15 Restaurant, Panaji",https://www.zomato.com/goa/bay-15-panaji,"1,100","Continental, Italian, Goan, North Indian, Asian, Chinese, Seafood, Desserts",4.9,1222," Odxel Beach, Dona Paula, Panaji, Goa",15.4948951396,73.8344711065
"taste tibet Restaurant, Calangute",https://www.zomato.com/goa/taste-of-tibet-calangute,700,"Tibetan, Chinese, Asian",3.6,22," Calangute Beach Road, Calangute, Goa",15.2757288701,73.9793331921
"goan spice Restaurant, Anjuna",https://www.zomato.com/goa/goan-spice-anjuna,"1,000","Goan, North Indian, Chinese",3.8,64," Anjuna Road, Anjuna, Goa",15.5557647695,73.7574018538
"tomatos beachside kitchen bar Restaurant, Candolim",https://www.zomato.com/goa/tomatos-beachside-kitchen-and-bar-candolim,800,"Chinese, North Indian, Continental, Mediterranean",NEW,," Candolim Beach, Candolim Main Parking, Candolim, Goa",15.4998871471,73.8268211111
"hotel rohit Restaurant, Penha de Franca",https://www.zomato.com/goa/hotel-rohit-penha-de-franca,400,"Seafood, North Indian",-,," 1031, Hotel Rohit, Porvorim, Behind Goa Higher Secondary Board, Penha de Franca, Goa",15.4638392000,73.8055594000
"flavours goa Restaurant, Vasco",https://www.zomato.com/goa/flavours-of-goa-vasco,850,Goan,-,," The Flora Grand, Near Vaddem Lake, Vasco, Goa",15.5405117380,73.7869913131
"lara laram bogmalo beach resort Restaurant, Bogmalo",https://www.zomato.com/goa/lara-laram-bogmalo-beach-resort-bogmalo,"2,000",Finger Food,-,," Bogmalo Beach Resort, Bogmalo, Goa",15.5186347714,73.7641985714
"doms Restaurant, Bogmalo",https://www.zomato.com/goa/doms-bogmalo,800,"North Indian, Chinese, Goan",3.3,10," Bogmalo Beach, Bogmalo, Goa",15.5078160847,73.7699948251
"seafood junction Restaurant, Calangute",https://www.zomato.com/goa/seafood-junction-calangute,800,Seafood,3.2,15," Naikka Vaddo, Calangute, Goa",15.5984386300,73.8157224655
"janata Restaurant, Margao",https://www.zomato.com/goa/janata-margao,450,"Chinese, North Indian, Biryani, Desserts, Beverages",3.4,17," Old Station Road, Margao, Goa",15.2831815472,73.9558933675
"sea face Restaurant, Calangute",https://www.zomato.com/goa/sea-face-calangute,650,"Seafood, North Indian, Goan, Continental, Chinese, Biryani, Coffee, Italian",-,," Calangute Beach, Near Village Paradise Resort, Calangute, Goa",0.0000000000,0.0000000000
"simply sambhar Restaurant, Margao",https://www.zomato.com/goa/simply-sambhar-margao,150,South Indian,Temporarily,Closed," B 15-17, Osia Commercial Arcade, Near Inox Theatre, Margao, Goa",15.2793706662,73.9145538211
"angels bakery Restaurant, Bambolim",https://www.zomato.com/goa/angels-bakery-bambolim,150,"Bakery, Desserts",-,," House 500/10, Tiswadi, Bambolim, Goa",15.5884376331,73.7602014095
"sochi beach Restaurant, Benaulim",https://www.zomato.com/goa/sochi-beach-benaulim,"1,200","Continental, Italian",3.3,23," At Leonoras Private Beach Property, Benaulim Beach, Opposite Lotus Beach Resort, Benaulim, Goa",15.4086805884,74.0090289339
"mahalaxmi fast food Restaurant, Margao",https://www.zomato.com/goa/mahalaxmi-fast-food-margao,250,"Chinese, North Indian",-,," Shop 98, Old Market, Near Margao, Goa",15.5641540688,73.7647869810
"dessi cuppa Restaurant, Margao",https://www.zomato.com/goa/dessi-cuppa-margao,200,"Fast Food, Beverages",3.6,28," Aisha Center, Old Market, Fatorda, Margao, Goa",15.5027056992,73.7712990493
"aflatoon restaurant Restaurant, Calangute",https://www.zomato.com/goa/aflatoon-restaurant-calangute,450,"Biryani, Chinese, North Indian",2.6,9," Shop 11 & 12, Holy Market Complex, Naikawada, Calangute, Goa",15.2747142661,73.9563855529
"cream centre Restaurant, Panaji",https://www.zomato.com/goa/cream-centre-panaji,200,"Desserts, Ice Cream",3.7,29," 5, Falcon Apartments, Heliodoro Salgado Road, Near EL Dorado Plaza, Panaji, Goa",15.2651310779,73.9205140248
"littles anthony Restaurant, Colva",https://www.zomato.com/goa/littles-anthony-colva,400,"Fast Food, Seafood",NEW,," 4th Ward, Colva Beach, Colva, Goa",15.5450129566,73.7638274208
"desserts n more Restaurant, Panaji",https://www.zomato.com/goa/desserts-n-more-1-panaji,350,Bakery,3.4,8," Ground Floor, Caculo Mall, Panaji, Goa",15.6039738620,73.7522798404
"food point Restaurant, Ponda",https://www.zomato.com/goa/food-point-ponda,350,"North Indian, Chinese, Fast Food",-,," Electricity Department Staff Residential Colony, Haveli, Curti, Ponda, Goa",15.5094611509,73.7931439653
"flame grill by baywatch resort goa Restaurant, Colva",https://www.zomato.com/goa/flame-grill-by-baywatch-resort-goa-colva,"1,200","Continental, Seafood",-,," 107/10, Ambeaxir, Sernabatim, Salcete, Colva, Goa",15.5973522978,73.7486317009
"cravo india Restaurant, Candolim",https://www.zomato.com/goa/cravo-the-india-candolim,"1,000","North Indian, Chinese, Continental, Goan",-,," Aldeia Santa Rita, Dando Vado, Candolim, Goa",15.5454428848,73.7598473579
"florentine Restaurant, Penha de Franca",https://www.zomato.com/goa/florentine-penha-de-franca,800,Seafood,4.1,306," Chogm Road, Saligao, Penha de Franca, Goa",15.5387480475,73.8179433346
"naiks family restaurant Restaurant, Margao",https://www.zomato.com/goa/naiks-family-restaurant-margao,800,"North Indian, Goan",-,," Shop 8, Ground Floor, Damdar Bulding, Margao, Goa",15.2910058778,73.9588947594
"camlin restaurant Restaurant, Vagator",https://www.zomato.com/goa/camlin-restaurant-vagator,450,"Seafood, Goan, North Indian, Chinese",-,," Opposite Chapora Football Ground, Mapusa - Anjuna - Chapora Road, Vagator, Goa",15.4865017302,73.8178910315
"retreat anjuna resort Restaurant, Vagator",https://www.zomato.com/goa/retreat-anjuna-resort-vagator,600,"North Indian, Chinese",-,," Zor Vaddo, Behind Vagator Petrol Pump, Vagator, Goa",15.4994264310,73.8228554651
"burgers bites Restaurant, Penha de Franca",https://www.zomato.com/goa/burgers-bites-penha-de-franca,250,"Burger, Fast Food",3.3,7," Chogum Road, Alto Porvorim, Penha de Franca, Goa",15.5465705136,73.7835175171
"rafflezz Restaurant, Margao",https://www.zomato.com/goa/rafflezz-margao,300,"Fast Food, Beverages",3.3,11," Shop 2, 3, Albanita Enclave, Near Salcete, Padre Pedru Ferrao Road, Margao, Goa",15.5751180383,73.7613185495
"fine food Restaurant, Benaulim",https://www.zomato.com/goa/the-fine-food-benaulim,700,"North Indian, Chinese, Seafood",3.2,8," Benaulim Beach, Benaulim, Goa",15.4600701852,73.8244111463
"food court Restaurant, Panaji",https://www.zomato.com/goa/food-court-panaji,550,"Fast Food, North Indian, South Indian",3.3,55," 6 & 7, Dempo Towers, Patto Plaza, Panaji, Goa",15.4803158234,73.8085385039
"taal double tree by hilton Restaurant, Baga",https://www.zomato.com/goa/taal-double-tree-by-hilton-baga,"2,500",North Indian,3.7,38," Double Tree by Hilton, Ximer Arpora, Baga, Goa",15.2598475071,73.9265976101
"showbar Restaurant, Candolim",https://www.zomato.com/goa/showbar-candolim,"1,800",Modern Indian,3.8,147," Sinquerim, Candolim, Goa",15.4540857830,73.8287372142
"stall no 22 Restaurant, Panaji",https://www.zomato.com/goa/stall-no-22-panaji,100,Street Food,-,," Stall 22, Opposite Sharda Mandir High School, Miramar Beach, Near Panaji, Goa",0.0000000000,0.0000000000
"This Is It Restaurant, Arambol",https://www.zomato.com/goa/this-is-it-arambol,"1,000","Goan, Italian, Chinese, South Indian, Continental, North Indian",3.4,18," Khalcha Wadda Arambol, Arambol Beach, Arambol, Goa",15.4997443446,73.8241523132
"rachus kitchen Restaurant, Panaji",https://www.zomato.com/goa/rachus-kitchen-panaji,100,Fast Food,-,," I/T 2, Models Status, Near University, Dona Paula, Panaji, Goa",15.3105274293,73.9181446284
"shahi Restaurant, Panaji",https://www.zomato.com/goa/shahi-panaji,500,"North Indian, Mughlai, Chinese, Goan",-,," Near Municipal Market, Panaji, Goa",15.4960686001,73.8348972425
"kokani Restaurant, Penha de Franca",https://www.zomato.com/goa/kokani-penha-de-franca,600,"Goan, North Indian, Chinese",3.6,36," Alto Porvorim, Opposite Chodankar Hospital, Penha de Franca, Goa",15.2905123582,73.9638957381
"bar grill mayfair hideaway spa resort Restaurant, Cavelossim",https://www.zomato.com/goa/bar-grill-mayfair-hideaway-spa-resort-cavelossim,"1,400","North Indian, Chinese, Continental",-,," Mayfair Hideaway Spa Resort, Rangali, Betul, Cavelossim, Goa",15.5015836461,73.7715099379
"punjabi dhaba mes  Restaurant, Vasco",https://www.zomato.com/goa/punjabi-dhaba-mes-vasco,550,"North Indian, Chinese, Mughlai, Desserts, Beverages",3.2,8," Survey 174/A, Shop 2, Ground Floor, Shireen Complex, Zuarinagar Sounth, Moormugao, Near Mes College Junction, Vasco, Goa",15.3883578135,73.8605378196
"taste goa Restaurant, Margao",https://www.zomato.com/goa/taste-of-goa-margao,300,"North Indian, Chinese, Goan",-,," Madeira Chambers, Fatorda, Opposite Maruti Suzuki Showroom, Margao, Goa",15.5234721122,73.7666139007
"mandari oak Restaurant, Mapusa",https://www.zomato.com/goa/mandari-oak-mapusa,400,Chinese,NEW,," Door 157/F/2, Housing Board Road, Ward 2, Bardez, Mapusa, Goa",15.6927034750,73.7005940080
"blues ocean lounge Restaurant, Morjim",https://www.zomato.com/goa/blues-the-ocean-lounge-morjim,800,"North Indian, European, Finger Food",3.3,11," 124/5 Vithaldas Wadoo, Morjim Beach Road, Morjim, Goa",15.6008824000,73.8060209000
"sunnys deck restaurant Restaurant, Moira",https://www.zomato.com/goa/sunnys-deck-restaurant-moira,800,Goan,NEW,," Sterling Goa Bardez, PDA Colony, Alto Porvorim, Bardez, Moira, Goa",15.6254074699,73.7294981629
"dhananjay fish curry Restaurant, Baga",https://www.zomato.com/goa/dhananjay-fish-curry-baga,300,Goan,4.0,54," Calangute, Baga Road, Baga, Goa",15.2858416519,73.9572364837
"appi shack Restaurant, Calangute",https://www.zomato.com/goa/appi-shack-calangute,550,"North Indian, Goan, Continental, Seafood",-,," Calangute Beach, Calangute, Goa",15.5295384954,73.8247152418
"carnaval pan asian caravela beach resort Restaurant, Benaulim",https://www.zomato.com/goa/carnaval-pan-asian-caravela-beach-resort-benaulim,"1,800",Asian,3.7,19," Caravela Beach Resort, Varca Beach, Benaulim, Goa",15.3035595131,73.9143006876
"sea breeze Restaurant, Anjuna",https://www.zomato.com/goa/sea-breeze-anjuna,500,"Seafood, Goan",3.3,5," St Michael Vaddo, Anjuna, Goa",15.4980445996,73.9217716455
"la belle Restaurant, Margao",https://www.zomato.com/goa/la-belle-margao,250,"Bakery, Cafe",3.0,6," 1/1890/b-10, Ground Floor, Sgpda Building, Osia Market Complex, Margao, Goa",15.5720827952,73.7416163832
"sai soul curry Restaurant, Old Goa",https://www.zomato.com/goa/sai-soul-curry-old-goa,500,"Chinese, North Indian, Mughlai",3.0,7," NH 748, Pinto Complex, Opposite St. Francis Xavier's Residency, Ella, Old Goa, Goa",15.6587429960,73.7171194330
"lake view Restaurant, Panaji",https://www.zomato.com/goa/lake-view-panaji,800,"North Indian, Chinese, Goan",3.4,12," H.N 842 Kursawaddo, Zuari Road, Siridao, Panaji, Goa",15.5538106409,73.7580817938
"temple tree grill chill Restaurant, Cavelossim",https://www.zomato.com/goa/temple-tree-grill-chill-cavelossim,"1,500",American,-,," Opposite Radisson Blu, Cavelossim, Salcette, Goa",15.5715340696,73.7591261789
"jazz corner Restaurant, Candolim",https://www.zomato.com/goa/jazz-corner-candolim,800,"Chinese, Continental, Goan, Italian, Mughlai, Seafood",3.9,133," H 565A, Opposite Canara Bank, Candolim Road, Candolim, Goa",15.1752677308,73.9473143220
"pavilion Restaurant, Benaulim",https://www.zomato.com/goa/the-pavilion-benaulim,600,"Goan, Seafood, North Indian, Chinese",3.5,44," Benaulim Beach, Benaulim, Goa",15.5367181697,73.7641945481
"sunflower pride sun village resort spa goa Restaurant, Baga",https://www.zomato.com/goa/sunflower-pride-sun-village-resort-and-spa-goa-baga,800,"North Indian, Goan, Mughlai",-,," Saquwadi, Baga, Goa",15.5459089893,73.7580251321
"verandah Restaurant, Mandrem",https://www.zomato.com/goa/verandah-mandrem,"1,400",Seafood,-,," Calist House, Ashwem-Mandrem Road, Mandrem, Goa",15.2125223325,73.9396619797
"omanuelo Restaurant, Anjuna",https://www.zomato.com/goa/omanuel-o-anjuna,800,"Continental, North Indian, Seafood, Goan",3.2,6," Anjuna Beach, Anjuna, Goa",15.5184157412,73.7675768137
"martins corner Restaurant, Betalbatim",https://www.zomato.com/goa/martins-corner-betalbatim,"1,600","Goan, Seafood, Chinese, North Indian",4.5,2538," Binwaddo, Salcette, Betalbatim, Goa",15.4392573322,73.8675846532
"spuntini Restaurant, Calangute",https://www.zomato.com/goa/spuntini-1-calangute,400,"Chinese, North Indian, Goan, Seafood, Desserts",-,," Anjuna Road, Near St Anthony Chapel, Gauravaddo, Calangute, Goa",15.5453320920,73.7625154853
"hotel jai maharashtra Restaurant, Calangute",https://www.zomato.com/goa/hotel-jai-maharashtra-calangute,350,"Goan, North Indian",-,," Calanguta Beach Parking, Near Paulo Travels, Calangute, Goa",15.5697997125,73.7421722710
"chronicle Restaurant, Vagator",https://www.zomato.com/goa/chronicle-vagator,"1,600",Pizza,3.9,75," Small Vagator, Vagator, Goa",15.4985647663,73.8315233588
"carvalhos Restaurant, Calangute",https://www.zomato.com/goa/carvalhos-calangute,700,"Goan, Continental, North Indian, Chinese, Seafood",3.8,142," Near Old Petrol Pump, Naika Vaddo, Calangute, Goa",15.5431170000,73.7784670000
"welcome panjabi dhaba bar restaurants Restaurant, Bardez",https://www.zomato.com/goa/welcome-panjabi-dhaba-bar-restaurants-bardez,500,"North Indian, Mughlai, Chinese",-,," Near Police Station Naikawado, Parvorim Road, Bardez, Goa",15.2578627778,73.9281100407
"om family restaurant bar Restaurant, Panaji",https://www.zomato.com/goa/om-family-restaurant-bar-panaji,700,"North Indian, Chinese, Continental, Beverages",-,," 31st, Janeiro Road, Patto, Panaji, Goa",15.3107806331,73.9184054732
"sagar view restaurant Restaurant, Panaji",https://www.zomato.com/goa/sagar-view-restaurant-panaji,600,"North Indian, Mughlai, Chinese, Goan",3.0,12," H-15/110/E-8, Models Marine Casrie, Caranzalem, Tiswadi Taluka, Panaji, Goa",15.5315845956,73.7589176372
"cafe roma Restaurant, Calangute",https://www.zomato.com/goa/cafe-roma-calangute,550,"North Indian, Goan, Continental, Chinese, Italian, Seafood",3.0,4," Calangute Beach, Calangute, Goa",15.4676303394,73.8072198629
"cafe mitra Restaurant, Margao",https://www.zomato.com/goa/cafe-mitra-1-margao,300,"Cafe, Street Food, North Indian, South Indian, Beverages",3.2,8," Shop 3 - 5, Kalika Chambers, V V Road, Margao, Goa",15.5960560544,73.7340059504
"banyan Restaurant, Assagao",https://www.zomato.com/goa/the-banyan-assagao,"1,000",Asian,3.5,18," 345/1, Munang Vado, Assagao, Goa",15.2737481722,73.9595133439
"baga resto bar Restaurant, Baga",https://www.zomato.com/goa/baga-resto-bar-baga,900,"North Indian, Continental, Seafood",2.9,56," Baga Beach, Baga, Goa",15.3694144585,73.8354829699
"fat fish Restaurant, Baga",https://www.zomato.com/goa/fat-fish-baga,"1,100","North Indian, Continental, Goan, Italian",4.2,2266," Agar Waddo, Calangute Arpora Road, Baga, Goa",15.5937422363,73.8028049469
"rock water Restaurant, Morjim",https://www.zomato.com/goa/rock-water-morjim,500,"North Indian, Chinese, Continental",3.5,10," 182/8, Rockwater Resort, Gawde Wada, Morjim Village, Pernem, Morjim, Goa",15.5056754114,73.8639824465
"jannat palace Restaurant, Arambol",https://www.zomato.com/goa/jannat-palace-arambol,800,"Seafood, North Indian, Continental",2.8,5," Arambol Beach, Arambol, Goa",15.6040574981,73.7618888542
"palmiras Restaurant, Benaulim",https://www.zomato.com/goa/palmiras-benaulim,600,"Italian, Goan",-,," 1555, Vassvaddo, Near Holy Cross Chapel, Benaulim, Goa",15.6892290510,73.7024725601
"flame double tree by hilton Restaurant, Baga",https://www.zomato.com/goa/flame-baga,"1,600","North Indian, Chinese, Continental",3.7,37," Ximer Arpora, Baga, Goa",15.5564898918,73.7519180775
"gazebo bogmalo beach resort Restaurant, Bogmalo",https://www.zomato.com/goa/gazebo-bogmalo-beach-resort-bogmalo,"1,000",Continental,-,," Bogmalo Beach Resort, Bogmalo, Goa",15.6359765279,73.7216516957
"riverside bar restaurant Restaurant, Old Goa",https://www.zomato.com/goa/riverside-bar-restaurant-old-goa,400,"Seafood, Fast Food, North Indian",-,," Opposite Ribander, Old Goa, Goa",15.5751322488,73.7620913610
"gitesh bar Restaurant, Mapusa",https://www.zomato.com/goa/gitesh-bar-mapusa,700,"Chinese, North Indian, Seafood",-,," Khorlim, Mapusa, Goa",15.6106436489,73.9307134598
"shree khodiyar kathiyawadi dhaba Restaurant, Calangute",https://www.zomato.com/goa/shree-khodiyar-kathiyawadi-dhaba-calangute,550,Gujarati,3.7,22," 1/79, 1st Floor, Aguada - Siolim Road, Near Calangute Mall, Calangute, Goa",15.5897542700,73.8104653358
"goan fish cafe Restaurant, Panaji",https://www.zomato.com/goa/goan-fish-cafe-panaji,700,"Goan, European, North Indian, Fast Food",3.6,176," 39, Gera's Imperium Green, Ourem Road, Neugi Nagar, Mala, Panaji, Goa",15.5333160444,73.7643876672
"avisha residency Restaurant, Vasco",https://www.zomato.com/goa/avisha-residency-vasco,500,"Goan, North Indian, Chinese, Fast Food",3.5,18," Behind State Bank Of India, Pixem Dongri, Vasco, Goa",15.5004312172,73.8315139711
"vegas deltin royale Restaurant, Panaji",https://www.zomato.com/goa/vegas-deltin-royale-panaji,"5,000","North Indian, Italian, Asian",3.9,138," Deltin Royale, Noah's Ark, RND Jetty, D. Bandodkar Road, Panaji, Goa",15.2378588563,73.9311761409
"travellers multicuisine Restaurant, Benaulim",https://www.zomato.com/goa/travellers-multicuisine-benaulim,"1,000","Seafood, Goan",3.2,7," Varca, Benaulim, Goa",15.4968459495,73.8359761611
"udupi palace Restaurant, Panaji",https://www.zomato.com/goa/udupi-palace-panaji,400,South Indian,2.9,6," Hotel Rego, Near KTC Bus Stop, Patto, Panaji, Goa",15.5564485486,73.7638240680
"orchid hotel fortune select regina Restaurant, Candolim",https://www.zomato.com/goa/orchid-candolim,"1,200",North Indian,3.7,32," Hotel Fortune Select Regina, Off Fort Aguada Road, Candolim, Goa",15.3177479856,73.9035537466
"uncle chef Restaurant, Mapusa",https://www.zomato.com/goa/uncle-chef-2-mapusa,300,Fast Food,-,," Mapusa panjim Road, Gandhi Chowk, Mapusa, Goa",15.4005164192,73.8131140172
"cafe vrushali Restaurant, Panaji",https://www.zomato.com/goa/cafe-vrushali-panaji,150,"North Indian, Goan",3.2,4," Shop 9, House 13/119/18, Deepament Apt, Near Caculo Island, MG Road, Panaji, Goa",15.4949161405,73.8207680359
"angel bakery Restaurant, Bicholim",https://www.zomato.com/goa/angel-bakery-bicholim,150,Bakery,-,," Tivim Gaon, Bicholim, Goa",15.6252566823,73.7300111353
"ciroc Restaurant, Morjim",https://www.zomato.com/goa/ciroc-morjim,800,"Continental, North Indian, Chinese, Goan",-,," Hotel Ciroc, Vitthaldaswado Next to Naga Cottages, Morjim",15.2999009974,73.9217203483
"liquid lounge kenilworth resort Restaurant, Majorda",https://www.zomato.com/goa/liquid-lounge-kenilworth-resort-majorda,800,Finger Food,-,," Kenilworth Resort & Spa, Utorda, Majorda, Goa",15.5209029149,73.8287194446
"moti mahal Restaurant, Panaji",https://www.zomato.com/goa/moti-mahal-panaji,"1,000","North Indian, Chinese, Goan",3.8,79," Opposite Social Welfare, 18th June Road, Panaji, Goa",15.5113523793,73.7720597908
"kingslee bar restaurant Restaurant, Betalbatim",https://www.zomato.com/goa/kingslee-bar-and-restaurant-2-betalbatim,700,"North Indian, Seafood, South Indian",-,," Fatona, Betalbatim, Goa",15.4900154497,73.8325325400
"cream corner Restaurant, Penha de Franca",https://www.zomato.com/goa/cream-corner-penha-de-franca,300,"Beverages, Ice Cream",-,," Teen Building, Proverim, Penha de Franca, Goa",15.5459038212,73.7546991929
"ocean beach Restaurant, Calangute",https://www.zomato.com/goa/ocean-beach-calangute,800,"Seafood, Chinese, North Indian, Italian, Goan",-,," Calangute Beach, Calangute, Goa",15.3879424288,73.8610243052
"hotel deep santoshi Restaurant, Vasco",https://www.zomato.com/goa/hotel-deep-santoshi-vasco,300,"North Indian, Chinese",3.2,7," NBR 4, 5, Plot 26, 174/1A, Sancoale Zuarinagar, Mormugaon, Vasco, Goa",15.1735989968,73.9467299357
"octima restaurant bar café Restaurant, Cavelossim",https://www.zomato.com/goa/octima-restaurant-bar-café-cavelossim,"1,000","Continental, Chinese, North Indian, Goan, Seafood",3.3,6," House 352/A, Khandy, Salcette, Cavelossim, Goa",15.4985014417,73.8273716345
"lazeez khana Restaurant, Panaji",https://www.zomato.com/goa/lazeez-khana-panaji,600,"Biryani, Mughlai, Chinese",3.0,28," 3-4, Ground Floor, Ritinha Apartments, St. Inez, Panaji, Goa",15.5327413730,73.7625647709
"garden villa Restaurant, Vagator",https://www.zomato.com/goa/garden-villa-vagator,600,"Italian, Seafood, North Indian",2.8,19," Vagator Beach Road, Vagator, Goa",15.5172046102,73.7679546699
"blue bird Restaurant, Vagator",https://www.zomato.com/goa/blue-bird-vagator,"1,000","Goan, Italian, Continental, Seafood",3.7,32," Near The Church, Small Vagator, Vagator, Goa",15.2747142661,73.9563855529
"shruti Restaurant, Calangute",https://www.zomato.com/goa/shruti-calangute,300,"North Indian, Chinese",-,," 136/1, Holiiday Street, Gauravaddo, Calangute, Goa",15.5993628475,73.7384869158
"bending bamboos Restaurant, Candolim",https://www.zomato.com/goa/bending-bamboos-candolim,800,"North Indian, Chinese, Fast Food, Beverages",3.8,34," H 651, Reyodcar, Pintos Vaddo, Bardez, Candolim, Goa",15.5560900000,73.7558900000
"al akbar Restaurant, Margao",https://www.zomato.com/goa/al-akbar-1-margao,500,"North Indian, Mughlai, Chinese",3.8,137," Nursing Home, Margao Navelim Road, Margao, Goa",15.4760684588,73.8451986015
"paranthapur Restaurant, Baga",https://www.zomato.com/goa/paranthapur-baga,200,North Indian,-,," OYO Flagship 13623, 243/10, Ground Floor, Saunta Vaddo, Baga, Goa",15.4930037605,73.8216531649
"sweetpeeps Restaurant, Panaji",https://www.zomato.com/goa/sweetpeeps-panaji,400,"Bakery, Desserts",3.2,8," Shop 8, Sapana Heights - A, Santa Inez, Panaji, Goa",15.0460432046,73.9861128107
"kokni kanteen Restaurant, Panaji",https://www.zomato.com/goa/kokni-kanteen-panaji,550,Goan,4.6,1092," Near Mahalaxmi Temple, Dr. Dada Vaidya Road, Panaji, Goa",15.4984297169,73.7721670792
"naiks family restaurant Restaurant, Margao",https://www.zomato.com/goa/naiks-family-restaurant-margao,800,"North Indian, Goan",-,," Shop 8, Ground Floor, Damdar Bulding, Margao, Goa",15.5277763262,73.7601554766
"copper Restaurant, Panaji",https://www.zomato.com/goa/copper-panaji,500,"North Indian, Chinese",3.5,37," Near Kamat Super Market, Old Caranzalem, Donapaula Road, Panaji, Goa",15.4846038123,73.8219337910
"greenland bar restaurant Restaurant, Palolem",https://www.zomato.com/goa/greenland-bar-restaurant-palolem,800,Italian,-,," Agonda Beach Road, Agonda, Goa",15.5631347358,73.7511972338
"sungrace restaurant Restaurant, Ponda",https://www.zomato.com/goa/sungrace-restaurant-ponda,500,"Chinese, Goan",3.2,25," Khadpabandh, Near Bus Stop,, India, Ponda, Goa",15.1630054485,74.0800521523
"horizon cafe  Restaurant, Calangute",https://www.zomato.com/goa/horizon-cafe-1-calangute,800,"Fast Food, North Indian, Chinese, Goan, Seafood, Beverages",NEW,," 11, Ximer Vaddo, Calangute Beach, Calangute, Goa",15.5970807138,73.7371267006
"khane ka khazana Restaurant, Candolim",https://www.zomato.com/goa/khane-ka-khazana-candolim,300,"Chinese, Gujarati, North Indian",-,," 4, The Mall Complex, Sinquerm, Bardez, Candolim, Goa",15.2638097934,73.9617419243
"blue nile bar restaurant Restaurant, Bambolim",https://www.zomato.com/goa/blue-nile-bar-restaurant-bambolim,400,Fast Food,-,," Shop 5, Near St. Cruz Church, Bambolim, Goa",15.5008741616,73.7716145441
"shree gomantak family restaurant bar Restaurant, Margao",https://www.zomato.com/goa/shree-gomantak-family-restaurant-bar-margao,700,"Chinese, Goan",3.4,25," 101/106, 1st Floor, Madhav Chambers, Malbhat, Salcete, Margao, Goa",15.4081776502,73.9922305942
"cherry tomato Restaurant, Margao",https://www.zomato.com/goa/cherry-tomato-margao,"1,000","Burger, Fast Food, Desserts, Beverages",4.2,175," Rua De Saudades, Opposite BPS Sports Club, Monte Hill Road, Margao, Goa",15.4683693429,73.8079782575
"mayur Restaurant, Quepem",https://www.zomato.com/goa/mayur-quepem,400,"North Indian, Goan, Seafood",-,," Bazar Wado, Revna, Quepem, Goa",15.2782341480,73.9610291272
"tanoj food corner Restaurant, Baga",https://www.zomato.com/goa/tanoj-food-corner-baga,350,North Indian,-,," Opposite Baga Parking, New Market, Baga, Goa",15.5000477190,73.8301410154
"shree santosh family dhaba Restaurant, Candolim",https://www.zomato.com/goa/shree-santosh-family-dhaba-candolim,600,"North Indian, Chinese, South Indian, Street Food, Fast Food, Beverages",-,," Survey 63/7, 61/14, Candolim, Goa",15.4965409549,73.8270088658
"garma garam eat takeaway Restaurant, Penha de Franca",https://www.zomato.com/goa/garma-garam-eat-takeaway-penha-de-franca,700,"North Indian, Chinese, Seafood",3.3,9," Delfinos Food Court, NH 17, Porvorim, Panaji, Goa",15.2727241790,73.9607820287
"vivo alila diwa Restaurant, Majorda",https://www.zomato.com/goa/vivo-alila-diwa-majorda,"1,200","North Indian, Fast Food",3.9,64," 48/10, Village Alila Diwa, Majorda, Goa",15.5207824174,73.8286872581
"republica food court Restaurant, Panaji",https://www.zomato.com/goa/republica-food-court-panaji,500,"Chinese, North Indian",-,," Hotel Republica, Opposite Old Secretariat, Panaji, Goa",15.2905123582,73.9638957381
"treat 24 hour cafe Restaurant, Calangute",https://www.zomato.com/goa/treat-24-hour-cafe-calangute,"1,000",Continental,3.8,26," House 2/16A, Azzure By Spree Hotels, Naika Vaddo, Bardez, Calangute, Goa",15.5932538300,73.8148011300
"taste goa Restaurant, Margao",https://www.zomato.com/goa/taste-of-goa-margao,300,"North Indian, Chinese, Goan",-,," Madeira Chambers, Fatorda, Opposite Maruti Suzuki Showroom, Margao, Goa",15.3780631402,73.8837704435
"pizza joint Restaurant, Mapusa",https://www.zomato.com/goa/pizza-joint-mapusa,400,"Pizza, Fast Food",-,," Shop 5/57/2, 2nd Floor, Natalina Apartment, Mapusa, Goa",15.5206851794,73.7679650635
"waldorf restaurant Restaurant, Candolim",https://www.zomato.com/goa/waldorf-restaurant-candolim,700,North Indian,-,," Opposite Football Ground, Pintos Vaddo, Candolim, Goa",15.3065039363,73.9121636376
"burger bar bakery Restaurant, Siolim",https://www.zomato.com/goa/burger-bar-bakery-siolim,250,"Fast Food, Burger",3.7,54," 717/A, Porta Waddo, Opposite Keerti School, Siolim, Goa",15.3926438241,74.0211166441
"prima rosa sky cafe Restaurant, Chicalim",https://www.zomato.com/goa/prima-rosa-sky-cafe-chicalim,800,"Cafe, Bakery, Fast Food",-,," Hotel Villa Boa Ventura, Dabolim Airport, Chicalim, Goa",15.6967439838,73.6977461725
"tree house bar resaurant Restaurant, Calangute",https://www.zomato.com/goa/tree-house-bar-resaurant-calangute,"1,000","North Indian, Chinese, Continental",3.4,12," Near State Bank of India, Calangute, Goa",15.5546979145,73.7569418550
"carmel sweet lake Restaurant, Arambol",https://www.zomato.com/goa/carmel-sweet-lake-1-arambol,"1,000","Goan, North Indian",-,," Sweet Lake Beach, Arambol, Goa",15.4803158234,73.8085385039
"stall no 22 Restaurant, Panaji",https://www.zomato.com/goa/stall-no-22-panaji,100,Street Food,-,," Stall 22, Opposite Sharda Mandir High School, Miramar Beach, Near Panaji, Goa",15.5455446333,73.7637425959
"rajasthani dhaba Restaurant, Ponda",https://www.zomato.com/goa/rajasthani-dhaba-ponda,350,North Indian,-,," Shop 4, Margoan Road, Kazarwada, Bethora, Ponda, Goa",15.5388346173,73.7680505589
"heartbeat Restaurant, Mapusa",https://www.zomato.com/goa/heartbeat-mapusa,700,"North Indian, Chinese, Goan, Mughlai",3.4,49," Karaswada, Bardez, Mapusa, Goa",15.6276566772,73.7614399195
"bhojan fidalgo Restaurant, Panaji",https://www.zomato.com/goa/bhojan-fidalgo-panaji,700,"Gujarati, Chinese",3.8,176," Fidalgo, 18th June Road, Panaji, Goa",15.2578579260,74.1095705330
"mi casa Restaurant, Bambolim",https://www.zomato.com/goa/mi-casa-1-bambolim,700,"Chinese, Goan, Mughlai, North Indian",2.7,4," Sirodao, Bambolim, Goa",15.4441902487,73.8643304631
"coastline Restaurant, Baga",https://www.zomato.com/goa/coastline-baga,800,"North Indian, Goan, Chinese, Seafood",3.2,24," Baga Beach, Baga, Goa",15.3951092342,73.8075833023
"opescador Restaurant, Baga",https://www.zomato.com/goa/opescador-4-baga,"1,200","Continental, Goan, North Indian, Italian, Healthy Food, American",3.6,16," 175/A, Baga Street, Opposite Tibetan Market, Cobra Vaddo, Baga, Goa",15.4975451090,73.8248382881
"bakers street goa Restaurant, Penha de Franca",https://www.zomato.com/goa/bakers-street-goa-penha-de-franca,300,Bakery,4.2,223," Chogm Road, Porvorim, Penha de Franca, Goa",15.6876851664,73.7067620829
"kelkar enterprises Restaurant, Vasco",https://www.zomato.com/goa/kelkar-enterprises-vasco,250,"North Indian, Chinese",-,," Sea View Appartments, Near Sanjivani Hospital, Baina, Vasco, Goa",15.5843497723,73.7475752458
"yaki zushi Restaurant, Penha de Franca",https://www.zomato.com/goa/yaki-zushi-penha-de-franca,"1,000","Chinese, Sushi, Asian",4.5,760," Shop 251, Bella Vista Waddo, Sangolda, Penha de Franca, Goa",15.5383714040,73.8180774450
"cafe chorizo Restaurant, Ashwem",https://www.zomato.com/goa/cafe-chorizo-ashwem,550,"North Indian, Fast Food, Goan, Beverages",3.4,31," Aswem Beach Resort, Ashwem, Goa",15.5375903348,73.7578300014
"soul booster Restaurant, Anjuna",https://www.zomato.com/goa/soul-booster-anjuna,500,"Healthy Food, Italian",-,," Anjuna Mapusa Road, Mazal Waddo, Anjuna, Goa",15.6490074181,73.7170537189
"my shack restaurant Restaurant, Arambol",https://www.zomato.com/goa/my-shack-restaurant-arambol,500,"North Indian, Chinese, Goan",-,," Near Arambol Plaza, Arambol, Goa",15.6191530842,73.7350422889
"metros takeaway Restaurant, Quepem",https://www.zomato.com/goa/metros-takeaway-quepem,350,"Goan, Fast Food",-,," SH 6, Vodlemol Cacora, Quepem, Goa",15.5568949257,73.7513950467
"la vaiencia restaurant bar Restaurant, Morjim",https://www.zomato.com/goa/la-vaiencia-restaurant-bar-morjim,"1,500","Continental, North Indian, Chinese, Seafood",-,," La Vaiencia Resort, Tembwada, Morjim, Goa",15.6053927639,73.8223770261
"rockpool Restaurant, Vagator",https://www.zomato.com/goa/rockpool-vagator,"2,000",Finger Food,4.1,86," W Goa, North Goa, Vagator, Goa",15.5111181574,73.7725751102
"eclipse grill bar restaurant Restaurant, Candolim",https://www.zomato.com/goa/eclipse-grill-bar-restaurant-candolim,600,"North Indian, Chinese, Goan",NEW,," Bamon Vaddo, Near Fortune Hotel, Candolim, Goa",15.6016879045,73.7339271605
"alistos shack Restaurant, Calangute",https://www.zomato.com/goa/alistos-shack-calangute,650,"North Indian, Continental, Goan, Seafood, Chinese",-,," Tivai Vaddo, Calangute Beach, Calangute, Goa",15.5437425473,73.8130362332
"living room Restaurant, Vagator",https://www.zomato.com/goa/living-room-vagator,"1,500","Continental, Italian, North Indian, Chinese, Beverages",3.6,11," Main Vagator Beach Road, Vagator, Goa",15.3699032659,73.8341804221
"dosa hub Restaurant, Anjuna",https://www.zomato.com/goa/dosa-hub-anjuna,400,"South Indian, North Indian, Chinese",3.2,7," Anjuna Road, Anjuna, Goa",15.6587429960,73.7171194330
"verandah Restaurant, Mandrem",https://www.zomato.com/goa/verandah-mandrem,"1,400",Seafood,-,," Calist House, Ashwem-Mandrem Road, Mandrem, Goa",15.5980882530,73.7449939549
"cafe aria Restaurant, Bambolim",https://www.zomato.com/goa/cafe-aria-bambolim,700,"Cafe, Healthy Food, Salad",3.2,12," No. 1654, Ozran Beach Road, Vagator - Goa",15.5560940000,73.7558930000
"sequaa beach lounge Restaurant, Baga",https://www.zomato.com/goa/sequaa-beach-lounge-baga,800,"Chinese, Finger Food, Goan",3.5,43," Titos Lane 2, Near Casa Baga, Baga, Goa",15.5843384691,73.7530868500
"arcanjela bar restaurant Restaurant, Panaji",https://www.zomato.com/goa/arcanjela-bar-restaurant-panaji,500,"North Indian, Chinese, Goan",3.5,55," Near NIO Circle, Dona Paula, Panaji, Goa",15.0116062060,74.0215273574
"much much Restaurant, Baga",https://www.zomato.com/goa/much-much-1-baga,450,"North Indian, Chinese, Biryani",-,, Delivery Only,15.5310796947,73.8248557225
"caravela Restaurant, Calangute",https://www.zomato.com/goa/caravela-calangute,"2,000","Goan, Continental, Chinese, Mughlai",3.0,4," Goan Heritage, Ground Level, Gaura Vaddo, Calangute, Goa",15.5239114537,73.7665300816
"o circle fast food centre Restaurant, Porvorim",https://www.zomato.com/goa/o-circle-fast-food-centre-porvorim,250,Chinese,-,," NH 17, Rickshaw Stand, Opposite Durga Motors, Porvorim, Goa",15.5959004013,73.7453651056
"tonys beach club Restaurant, Bogmalo",https://www.zomato.com/goa/tonys-beach-club-bogmalo,600,"Goan, Seafood, North Indian, Continental",3.3,16," Bogmalo Beach, Bogmalo, Goa",15.4575897120,73.8038711250
"mika mocha Restaurant, Palolem",https://www.zomato.com/goa/mika-mocha-palolem,650,"Italian, Mediterranean, European",-,," Plot 118/4, Beach Main Road, Canacona, Palolem, Goa",15.2928169490,73.9081802219
"titlie Restaurant, Anjuna",https://www.zomato.com/goa/titlie-anjuna,"1,000","Continental, Seafood, Modern Indian",3.9,47," House 592, 5, Small Vagator Ozran, Anjuna, Goa",15.3960657162,73.8089391589
"vasco inn Restaurant, Vasco",https://www.zomato.com/goa/vasco-inn-vasco,400,"North Indian, Fast Food",-,," 13, Khalap Mansion, Vasco -Da-Gama, Mormugao, Vasco, Goa",15.3107793396,73.9184155315
"lavina beach shack Restaurant, Betalbatim",https://www.zomato.com/goa/lavina-beach-shack-betalbatim,700,"Seafood, North Indian, Chinese, Continental",-,," Gonsua Beach, Next to Jaipuria House, Betalbatim, Goa",15.5576132612,73.7542294711
"welcome panjabi dhaba bar restaurants Restaurant, Bardez",https://www.zomato.com/goa/welcome-panjabi-dhaba-bar-restaurants-bardez,500,"North Indian, Mughlai, Chinese",-,," Near Police Station Naikawado, Parvorim Road, Bardez, Goa",15.3107806331,73.9184054732
"melvin bar restaurant Restaurant, Benaulim",https://www.zomato.com/goa/melvin-bar-and-restaurant-benaulim,200,"Goan, North Indian, Chinese",-,," 1191/1, Salcete, Benaulim, Goa",15.2721093279,73.9718860388
"dragon panda Restaurant, Vasco",https://www.zomato.com/goa/dragon-panda-vasco,400,Chinese,3.3,40," Near Vodafone Gallery, Swatantra Path, New Vaddem, Vasco, Goa",15.5431170000,73.7784670000
"swadisht cafe Restaurant, Margao",https://www.zomato.com/goa/swadisht-cafe-margao,200,"Chinese, Street Food, North Indian",-,," St. Joseph Road, Aquem Alto, Opposite Lawande Hospital, Margao, Goa",15.5956647000,73.7342377000
"river lounge Restaurant, Penha de Franca",https://www.zomato.com/goa/river-lounge-penha-de-franca,550,"Goan, North Indian, Chinese, Seafood",3.6,33," Near Syndicate Bank, Betim, Penha de Franca, Goa",15.5615443596,73.7496381998
"flame kitchen Restaurant, Bardez",https://www.zomato.com/goa/flame-the-kitchen-bardez,200,"Mughlai, North Indian, Goan",-,, Delivery Only,15.5257073000,73.8241798000
"sea Restaurant, Assagao",https://www.zomato.com/goa/sea-assagao,"1,200","Asian, Seafood",4.3,70," 479, Anjuna Mapusa Road, Bouta Waddo, Assagao, Goa",15.6229858150,73.7680894509
"brittos bar restaurant Restaurant, Baga",https://www.zomato.com/goa/brittos-bar-restaurant-baga,"1,400","Continental, Goan, North Indian, Seafood, Desserts",4.3,4379," Baga Calangute, Bardez, Baga, Goa",15.4981463714,73.7684823945
"go Restaurant, Porvorim",https://www.zomato.com/goa/on-the-go-porvorim,600,"Cafe, American",3.6,17," Shop 2, Ground Floor, Sapna Sagar Project, Chogm Road, Porvorim, Goa",15.2679382544,73.9647372812
"palmiras Restaurant, Benaulim",https://www.zomato.com/goa/palmiras-benaulim,600,"Italian, Goan",-,," 1555, Vassvaddo, Near Holy Cross Chapel, Benaulim, Goa",15.2972700000,73.9730200000
"frozen panda Restaurant, Siolim",https://www.zomato.com/goa/the-frozen-panda-siolim,150,"Ice Cream, Beverages",-,," Near SFX School, Kudal, Siolim, Goa",15.5916231241,73.7735987082
"martini bar taj fort aguada resort spa Restaurant, Candolim",https://www.zomato.com/goa/martini-bar-taj-fort-aguada-resort-spa-candolim,"2,000",Drinks Only,3.1,4," Taj Fort Aguada Resort & Spa, Sinquerim, Candolim, Goa",15.3993556706,73.8194249198
"yedda anna chinese corner Restaurant, Margao",https://www.zomato.com/goa/yedda-anna-chinese-corner-margao,600,Chinese,NEW,," 2/9321, Elite Crossroads, 3rd Floor, Fatorda, Salcete, Margao, Goa",15.5089487652,73.8230485842
"apple family restaurant bar Restaurant, Margao",https://www.zomato.com/goa/apple-family-restaurant-and-bar-margao,800,"North Indian, Chinese, Goan",-,," 6/374, Shop 1, Durgabai Raiturkar Building, Opposite Rajendra Prasad Stadium, Margao, Goa",15.5394813053,73.8177398220
"punjab sind Restaurant, Vasco",https://www.zomato.com/goa/punjab-sind-vasco,400,Mithai,3.3,13," 200 Rua, Near Maharaja Hotel, Leopolo Flores, Vasco, Goa",15.2634442958,74.1039694101
"judes goan bakes Restaurant, Benaulim",https://www.zomato.com/goa/judes-goan-bakes-1-benaulim,400,Bakery,-,," Colva Benaulim Road, Dabolim Road, Benaulim, Goa",15.3173004470,73.9015394077
"tangerine zuri white sands resort Restaurant, Benaulim",https://www.zomato.com/goa/tangerine-the-zuri-white-sands-resort-benaulim,"3,000",Finger Food,3.4,13," The Zuri White Sands Resort, Pedda, Varca, Benaulim, Goa",15.2698323253,73.9285418764
"confeitaria 31 de janeiro Restaurant, Panaji",https://www.zomato.com/goa/confeitaria-31-de-janeiro-panaji,500,"Cafe, Portuguese, Goan, Bakery",3.8,69," Corte De Oiterio, 31 January Road, Panaji, Goa",15.3963039471,73.8100770861
"heart bar Restaurant, Majorda",https://www.zomato.com/goa/heart-bar-majorda,"1,500",Finger Food,-,," A8, Asconwado, Uttorda Beach, Salcette, Goa",15.5957111631,73.7354171276
"bollywood cafe Restaurant, Quepem",https://www.zomato.com/goa/bollywood-cafe-quepem,900,"American, Biryani, Chinese, Goan, Konkan",-,," Curchorem Trade Centre, CTN School Road, Curchorem, Near Quepem, Goa",15.2898548693,73.9545083418
"cool corner Restaurant, Margao",https://www.zomato.com/goa/cool-corner-margao,550,"North Indian, Chinese, Seafood",-,," Hotel La Grace, Near KTC Bus Stand, Madel, Margao, Goa",15.5897542700,73.8104653358
"shahi darbar Restaurant, Margao",https://www.zomato.com/goa/shahi-darbar-2-margao,500,"Desserts, Fast Food, Italian, Beverages",3.6,19," Shop 1 and 2, Aleesha Residency, Street. Joaquim Road, Borda, Margao, Goa",15.2259596300,73.9342727512
"uncle chef Restaurant, Mapusa",https://www.zomato.com/goa/uncle-chef-2-mapusa,300,Fast Food,-,," Mapusa panjim Road, Gandhi Chowk, Mapusa, Goa",15.4974378444,73.8313185051
"vista mare beach resort Restaurant, Vagator",https://www.zomato.com/goa/vista-mare-beach-resort-vagator,800,"Italian, Continental",-,," Ozran Beach Road, Small, Vagator, Goa",15.2051027395,73.9511632919
"udupi palace Restaurant, Panaji",https://www.zomato.com/goa/udupi-palace-panaji,400,South Indian,2.9,6," Hotel Rego, Near KTC Bus Stop, Patto, Panaji, Goa",0.0000000000,0.0000000000
"antares restaurant beach club Restaurant, Vagator",https://www.zomato.com/goa/antares-restaurant-beach-club-vagator,"2,000","Seafood, Fast Food, Goan",4.3,1326," Small Vagator Beach, Ozran, Vagator, Goa",15.4968459495,73.8359761611
"diksha Restaurant, Cavelossim",https://www.zomato.com/goa/diksha-cavelossim,700,"North Indian, South Indian, Goan, Chinese, Seafood",-,," Carmona D'Melo Waddo, Cavelossim, Goa",0.0000000000,0.0000000000
"hot box Restaurant, Bardez",https://www.zomato.com/goa/hot-box-bardez,250,Biryani,NEW,," House 842, Alto Porvorim, Bardez, Goa",15.6881661185,73.7166681513
"antique mardol Restaurant, Margao",https://www.zomato.com/goa/antique-mardol-1-margao,700,"Goan, Chinese, North Indian, Seafood",3.0,4," Plot 1, Opposite D- Link, Verna Industrial Estate, Salcete, Margao, Goa",15.2830596182,73.9689302444
"j top Restaurant, Majorda",https://www.zomato.com/goa/j-the-top-majorda,500,"Goan, North Indian, Chinese",-,," Casa Ligorio Road, Utorda Beach, Majorda, Goa",15.3192399894,73.9049337432
"black white  Restaurant, Arambol",https://www.zomato.com/goa/black-and-white-arambol,"1,000","North Indian, Chinese, Fast Food, Beverages",NEW,," Madhalawada, Pernem Road, Arambol, Goa",15.3565172250,73.9276899397
"hotel venite Restaurant, Panaji",https://www.zomato.com/goa/hotel-venite-panaji,"1,000","Continental, Seafood, Portuguese",4.2,318," 31st January Road, Panaji, Goa",15.2767850000,73.9268390000
"club merbela beach Restaurant, Morjim",https://www.zomato.com/goa/club-merbela-beach-morjim,"1,500","North Indian, Italian, Mexican, Goan",3.5,47," 782, Marbela Beach Resort, Gawdewada, Morjim-Ashvem Road, Morjim, Goa",15.3657655014,73.8499276713
"vicksunn food point Restaurant, Benaulim",https://www.zomato.com/goa/vicksunn-food-point-1-benaulim,400,"Goan, Chinese, North Indian",3.6,54," 1197, Mazilvaddo, Salcete, Benaulim, Goa",15.4995482333,73.8315545395
"yashona fast food takeaway Restaurant, Benaulim",https://www.zomato.com/goa/yashona-fast-food-and-takeaway-benaulim,500,"Maharashtrian, North Indian, South Indian",3.3,4," H-69/1, Ground Floor 11, Grande Vanelim, Salcete, Benaulim, Goa",15.2855596339,73.9788601175
"brendon Restaurant, Palolem",https://www.zomato.com/goa/brendon-palolem,"1,000","North Indian, Chinese, Thai, Seafood, Italian",3.2,13," Palolem Beach, Palolem, Goa",15.4574934137,73.8040008768
"hotel sarovar Restaurant, Panaji",https://www.zomato.com/goa/hotel-sarovar-panaji,550,"South Indian, North Indian, Fast Food",3.5,23," Near SBI, St. Inez, Panaji, Goa",15.5943622710,73.7353799120
"stonewater grill Restaurant, Bogmalo",https://www.zomato.com/goa/stonewater-grill-bogmalo,"1,500","North Indian, Chinese, Continental",-,," Stone Water Eco Resort, Santarem Beach, Vasco Da Gama, Issorcim, Near Coastguard Colony, Bogmalo, Goa",0.0000000000,0.0000000000
"khatta meetha corner Restaurant, Margao",https://www.zomato.com/goa/khatta-meetha-corner-1-margao,200,"North Indian, South Indian, Fast Food",-,," Shop 23, Ground Floor B, Felicinta Residential, Gogol, Margao, Goa",15.4941517076,73.8208987936
"chowpatty chaska Restaurant, Panaji",https://www.zomato.com/goa/chowpatty-chaska-panaji,200,"Street Food, Fast Food, North Indian, Chinese, Sandwich",NEW,," House 22/101/1, Nio Circle, Dona Paula, Tiswadi, Panaji, Goa",15.4768917661,73.8093887642
"food dude Restaurant, Vasco",https://www.zomato.com/goa/food-dude-vasco,550,"Goan, North Indian, Chinese, Fast Food",3.1,5," Swatantra Path, Vaddem, Vasco, Goa",15.6378578754,73.7209697440
"kavyas cafe Restaurant, Calangute",https://www.zomato.com/goa/kavyas-cafe-calangute,400,"North Indian, Continental, Cafe, Chinese, Italian",-,," Calangute Main Circle Behind Santa Durga Temple, Calangute, Goa",15.0122924098,74.0192890540
"felix resturant Restaurant, Baga",https://www.zomato.com/goa/felix-resturant-baga,300,Goan,-,," Main Beach Road, Baga, Goa",15.3993963987,73.8163262978
"bay view lounge Restaurant, Panaji",https://www.zomato.com/goa/bay-view-lounge-panaji,"2,000","North Indian, Chinese, Continental, Goan",-,," Varanda Do Mar, Behind Goa Science Center, Miramar, Panjim, Panaji, Goa",15.2481843665,73.9354941621
"arabian sea Restaurant, Ashwem",https://www.zomato.com/goa/arabian-sea-1-ashwem,"1,000","Goan, North Indian, South Indian, Chinese, Continental",2.9,14," Tahira Beach Resort, Ashvem Beach, Pernem, Ashwem, Goa",15.1628828026,74.0801312774
"panino little goan bistro Restaurant, Majorda",https://www.zomato.com/goa/panino-the-little-goan-bistro-1-majorda,850,"Seafood, Chinese, North Indian",2.6,19," Majorda Beach Road, Dongorim, Majorda, Goa",15.3107376241,73.9177942649
"beach wood bar restaurant Restaurant, Colva",https://www.zomato.com/goa/beach-wood-bar-restaurant-colva,700,"Chinese, Continental, Goan, North Indian",-,," 294, Ground Floor, 3rd Ward, Lucky Star Hotel, Beach Road, Colva, Goa",15.4846038123,73.8219337910
"vimleshwar bar restaurant Restaurant, Quepem",https://www.zomato.com/goa/vimleshwar-bar-and-restaurant-quepem,500,North Indian,-,," Revona Bazar, Revona, Quepem, Goa",15.6486506706,73.7164213881
"sweetpeeps Restaurant, Panaji",https://www.zomato.com/goa/sweetpeeps-panaji,400,"Bakery, Desserts",3.2,8," Shop 8, Sapana Heights - A, Santa Inez, Panaji, Goa",15.4993925072,73.8361287117
"habibi food cycle Restaurant, Mapusa",https://www.zomato.com/goa/habibi-food-cycle-mapusa,300,Fast Food,-,," Shop 1 & 2 Cosmos Darshan, Morod, Bardez, Mapusa, Goa",15.5246954821,73.7663393095
"goa food court family restaurant bar Restaurant, Candolim",https://www.zomato.com/goa/goa-food-court-family-restaurant-bar-candolim,350,"Biryani, Chinese, Continental",NEW,," Near Lawande Super Market, Aguada Fort Road, Annawaddo, Candolim, Goa",15.3186838037,73.9251177013
"laxmi Restaurant, Morjim",https://www.zomato.com/goa/laxmi-morjim,800,"North Indian, Continental, Goan, Mughlai, Seafood, Beverages",3.6,32," Near Church, Morjim Beach Road, Morjim, Goa",15.5881650686,73.9488991722
"kamat Restaurant, Bicholim",https://www.zomato.com/goa/kamath-bicholim,100,Fast Food,-,," Near K.T.C. Bus Stand, Bicholim, Goa",0.0000000000,0.0000000000
"annapurna Restaurant, Old Goa",https://www.zomato.com/goa/annapurna-old-goa,200,Goan,3.2,8," Near Goa Institute Of Management College, Old Goa, Goa",0.0000000000,0.0000000000
"rilassi Restaurant, Panaji",https://www.zomato.com/goa/rilassi-panaji,200,"Beverages, Fast Food",3.5,16," 213, Near Vistar Honda Showroom, 31st January Road, Panaji, Goa",15.5536878000,73.7523983000
"ruchik family restaurant Restaurant, Ponda",https://www.zomato.com/goa/ruchik-family-restaurant-ponda,500,"Goan, Fast Food, North Indian",-,," Panjim-Belgaum Road, Tisk Usgao, Ponda, Goa",15.5014214600,73.8757476211
